stop_id,stop_code,stop_name,stop_desc,stop_lat,stop_lon,zone_id,stop_url,location_type,parent_station
10,10,Mediterrani,C DOCTOR LLUCH 99 (DAVANT) - VALÈNCIA,39.4672336950355,-0.328305576746871,,,0,
1007,1007,Jesús Morante Borràs (I),AV JESUS MORANTE BORRAS 26 - VALÈNCIA,39.4510148911155,-0.345434552993697,,,0,
1008,1008,Jesús Morante Borràs (II),AV JESUS MORANTE BORRAS 54 - VALÈNCIA,39.4494826719026,-0.344468097469675,,,0,
1009,1009,Jesús Morante Borràs (III),AV JESUS MORANTE BORRAS 86 - VALÈNCIA,39.4479053768273,-0.344028802100437,,,0,
1010,1010,Jesús Morante Borrás (IV),AV JESUS MORANTE BORRAS 158 - VALÈNCIA,39.4441475622766,-0.343987428102104,,,0,
1012,1012,Jesús Morante Borrás (VI),AV JESUS MORANTE BORRAS 201 - VALÈNCIA,39.4413473580256,-0.343673874583449,,,0,
1013,1013,Jesús Morante Borrás (VII),AV JESUS MORANTE BORRAS 151 - VALÈNCIA,39.4441791392293,-0.343668958730394,,,0,
1014,1014,Jesús Morante Borràs (VIII),AV JESUS MORANTE BORRAS 75 - VALÈNCIA,39.4478936960831,-0.343864967647959,,,0,
1015,1015,Jesús Morante Borràs (IX),AV JESUS MORANTE BORRAS 56 (DAVANT) - VALÈNCIA,39.4493739401903,-0.344281002068258,,,0,
1016,1016,Jesús Morante Borràs (X),AV JESUS MORANTE BORRAS 26 (DAVANT) - VALÈNCIA,39.451011762366,-0.345267202066991,,,0,
1020,1020,Albereda,PSEG ALAMEDA 14 (DAVANT JARDÍ VIA CENTRAL) - VALÈNCIA,39.4740041578891,-0.364841098601335,,,0,
1021,1021,Pla del Real,PSEG ALAMEDA 1(DAVANT JARDÍ VIA CENTRAL) - VALÈNCIA,39.4764451951202,-0.366829060109773,,,0,
1026,1026,Ribàs (imparell) - Ador,CAMI RIBAS DAVANT  ADOR - CASTELLAR-OLIVERAL,39.432437878101,-0.360710276578104,,,0,
1027,1027,Principal - El Caroig,C  18 - VALÈNCIA,39.4324364000019,-0.362707137756935,,,0,
1028,1028,Mare de Déu de Lepant (imparell) - Esc. F. Siurana,PL VIRGEN DE LEPANTO 7 - CASTELLAR-OLIVERAL,39.4295031288394,-0.363665971447041,,,0,
1029,1029,Vicent Puchol - Font de Bonet,C VICENTE PUCHOL 72 - CASTELLAR-OLIVERAL,39.4266084095148,-0.364195059022159,,,0,
1030,1030,Crist del Refugi - Davant Sant Agustí,C CRISTO DEL REFUGIO 60 - CASTELLAR-OLIVERAL,39.4244861345336,-0.363944337407212,,,0,
1032,1032,Tírig - Guàrdia Civil,C TIRIG 4 - VALÈNCIA,39.4822289752108,-0.35911566424109,,,0,
1035,1035,Aragó - Finlàndia,AV ARAGÓN 22 (DAVANT INSTITUT) - VALÈNCIA,39.470826232474,-0.358644891937225,,,0,
1036,1036,Uruguai - Veneçuela,C URUGUAY 38 - VALÈNCIA,39.4555358259748,-0.387084456216399,,,0,
1038,1038,Arxiduc Carles (imparell) - Tres Forques,C ARCHIDUQUE CARLOS 63 - VALÈNCIA,39.4634437379901,-0.396427782416602,,,0,
1039,1039,Ernest Ferrer - Aragó,C ERNESTO FERRER 1 - VALÈNCIA,39.4723529435433,-0.356974583075343,,,0,
1041,1041,Plaça d'Espanya,GV RAMON Y CAJAL 25 - VALÈNCIA,39.4660155085642,-0.382265317332952,,,0,
1042,1042,Regne de València - Ciscar,AV REGNE DE VALENCIA 73 - VALÈNCIA,39.4628534385486,-0.363133693913953,,,0,
1044,1044,Poliesportiu de Burjassot,AV VICENTE ANDRES ESTELLES POLIESPORTIU - BURJASSOT,39.5077206255405,-0.416287168841145,,,0,
1050,1050,Mediterrània - Vicent Brull,C MEDITERRANEO 4 - VALÈNCIA,39.4677785378846,-0.331699753086476,,,0,
1052,1052,Eugènia Viñes - Mare de Déu del Sufragi,C EUGENIA VIÑES 109 (DAVANT BALNEARI) - VALÈNCIA,39.4668893082967,-0.325334990886143,,,0,
1054,1054,Aragó - Saragossa,AV ARAGÓN 4 - VALÈNCIA,39.4686498358746,-0.359977247461035,,,0,
1055,1055,Aragó - Ernest Ferrer,AV ARAGÓN 34 - VALÈNCIA,39.4728157954004,-0.35689335892588,,,0,
1057,1057,Estadi de Mestalla,AV ARAGÓN 42 (ACCÉS) - VALÈNCIA,39.4750634033144,-0.355779121865989,,,0,
1060,1060,Pere Cabanes - Mont Carmel,C PEDRO CABANES 10 - VALÈNCIA,39.495423208267,-0.372785306001156,,,0,
1061,1061,Pere Cabanes - Sant Doménec Savio,C PEDRO CABANES 58 - VALÈNCIA,39.494984980555,-0.375328631516903,,,0,
1062,1062,Pere Cabanes - Bisbe Laguarda,C PEDRO CABANES 88 - VALÈNCIA,39.4942418992021,-0.37878291980358,,,0,
1067,1067,Equador - Pintor Matarana,AV ECUADOR  EL 93 (DAVANT) - VALÈNCIA,39.4960789674019,-0.392778232094679,,,0,
1080,1080,Sant Vicent de Paül - Peníscola,C SAN VICENTE DE PAUL 15 - VALÈNCIA,39.4908807862021,-0.370581476255494,,,0,
1083,1083,Aragó,AV ARAGÓN 25 - VALÈNCIA,39.4727988641153,-0.357819395587071,,,0,
1085,1085,Aragó - Xile,AV ARAGÓN 16 - VALÈNCIA,39.4701728829585,-0.358289505030557,,,0,
1091,1091,Malilla (parell) - Bernat Descoll,CTRA MALILLA 60 - VALÈNCIA,39.4504876941937,-0.3793128527955,,,0,
1096,1096,Ramon Llull - Bernat Fenollar,C RAMON LLULL 31 (DAVANT) - VALÈNCIA,39.4769939947716,-0.346259170555003,,,0,
11,11,Dr. Lluch,C DOCTOR LLUCH 157 (DAVANT) - VALÈNCIA,39.4694008032899,-0.327974648167263,,,0,
1109,1109,Tomàs de Montañana (imparell) - Astúries,C PADRE TOMAS MONTAÑANA 24 (DAVANT) - VALÈNCIA,39.4632914914937,-0.35191759467136,,,0,
1110,1110,Dr. Manuel Candela (parell) - Port,C DOCTOR MANUEL CANDELA 6 - VALÈNCIA,39.465971269122,-0.350947257709471,,,0,
1111,1111,Dr. Manuel Candela (parell) - Sants Just i Pastor,C DOCTOR MANUEL CANDELA 52 - VALÈNCIA,39.4703686824985,-0.34910198615185,,,0,
1114,1114,Ramon Llull - García Donato,C RAMON LLULL 29 - VALÈNCIA,39.4768143464429,-0.346870078692388,,,0,
1116,1116,Dr. Manuel Candela (imparell) - Blasco Ibáñez,C DOCTOR MANUEL CANDELA 77 - VALÈNCIA,39.4729377333285,-0.348412002215135,,,0,
1117,1117,Dr. Manuel Candela - Sants Just i Pastor,C DOCTOR MANUEL CANDELA 53 - VALÈNCIA,39.4704837098723,-0.349458385744061,,,0,
1118,1118,Dr. Manuel Candela (imparell) - Rodríguez de Cepeda,C DOCTOR MANUEL CANDELA 29 - VALÈNCIA,39.4683763265145,-0.350267431035727,,,0,
1119,1119,Dr. Manuel Candela (imparell) - Port,C DOCTOR MANUEL CANDELA 3 - VALÈNCIA,39.465908187445,-0.351272040456535,,,0,
112,112,Ramon Llull - Leandro de Saralegui,C RAMON LLULL 5 - VALÈNCIA,39.4752173133944,-0.347545370778752,,,0,
1120,1120,Tomàs de Montañana (parell) - Astúries,C PADRE TOMAS MONTAÑANA 22 - VALÈNCIA,39.4636079284537,-0.35230762013987,,,0,
1125,1125,Comte de Torrefiel - Mestre Marçal,C CONDE DE TORREFIEL 28 - VALÈNCIA,39.4932532920652,-0.375937054687836,,,0,
1126,1126,Comte de Torrefiel - Josep Esteve,C CONDE DE TORREFIEL 74 - VALÈNCIA,39.495825823985,-0.376812275679414,,,0,
1127,1127,Comte de Torrefiel - Riu Bidasoa,C CONDE DE TORREFIEL 114 - VALÈNCIA,39.4979164432832,-0.377216531189376,,,0,
1128,1128,Mercat de Torrefiel,C SANTO DOMINGO SAVIO 94 (DAVANT) - VALÈNCIA,39.4979393936278,-0.376233981458268,,,0,
1129,1129,Sant Doménec Savio - Josep Esteve,C SANTO DOMINGO SAVIO 51 - VALÈNCIA,39.4960230657864,-0.375515911671209,,,0,
113,113,Blasco Ibáñez - Ramon Llull,AV BLASCO IBAÑEZ 73 (BARDISSA) - VALÈNCIA,39.4743155607505,-0.348547888415248,,,0,
1130,1130,Pere Patrici Mey - Felip Rinaldi,C PEDRO IMPRESOR PATRICIO MEY 29 - VALÈNCIA,39.4925156270022,-0.3770885570689,,,0,
1131,1131,Pintor Jacomart - Comte de Torrefiel,C PINTOR JACOMART 29 - VALÈNCIA,39.4964676445607,-0.377254841134174,,,0,
1132,1132,Músic Espí - Gravador Fabregat,PL MUSICO ESPI 1 (DAVANT) - VALÈNCIA,39.4969694033726,-0.374198232943215,,,0,
1133,1133,Tossal del Rei,C CONDE DE LUMIARES 26 (DAVANT) - VALÈNCIA,39.4963162124682,-0.372348753498856,,,0,
1134,1134,Blasco Ibáñez (parell) - José María Haro,AV BLASCO IBAÑEZ 182 - VALÈNCIA,39.470659099561,-0.338255240041202,,,0,
1136,1136,Palma de Gandia - Venta del Moro,C PALMA DE GANDIA S/N - BENIFARAIG,39.5296060126748,-0.383968515571999,,,0,
1137,1137,Ferrer i Bignè - Clavells,C FERRER Y BIGNE 21 - BENIFARAIG,39.5276439492337,-0.385803888600548,,,0,
1138,1138,Ferrer i Bigné - Santíssima Creu,C FERRER Y BIGNE 67 - BENIFARAIG,39.5295571342721,-0.385665749203191,,,0,
1139,1139,Ferrer i Bigné - Nelo el Fariner,C FERRER Y BIGNE 97 - BENIFARAIG,39.5307887093221,-0.385478005934089,,,0,
114,114,Blasco Ibáñez - Vinalopó,AV BLASCO IBAÑEZ 55 (JARDÍ) - VALÈNCIA,39.4750468906244,-0.351091228641343,,,0,
1140,1140,Camí de Montcada - Gasolinera,CAMI MONCADA 341 - VALÈNCIA,39.5122945742823,-0.386464265446322,,,0,
1141,1141,Germans Maristes (imparell) - Fonteta Sant Lluís,AV HERMANOS MARISTAS 14 (DAVANT) - VALÈNCIA,39.4516238629282,-0.367827968919416,,,0,
1143,1143,Centre de Salut Fonteta,C GRABADOR JORDAN 74 - VALÈNCIA,39.4425077269245,-0.368161746375685,,,0,
1145,1145,Campus de Burjassot,AV VICENTE ANDRES ESTELLES S/N - BURJASSOT,39.509630084362,-0.421699646530297,,,0,
1148,1148,Font d'en Corts (imparell) - Alqueria Reial,C FUENTE EN CORTS 67-69 - VALÈNCIA,39.4474794413012,-0.359573877151436,,,0,
1149,1149,Font d'en Corts (parell) - Davant Alqueria Reial,C FUENTE EN CORTS 66-68 - VALÈNCIA,39.4474421892476,-0.359659108788831,,,0,
115,115,Blasco Ibáñez - República Argentina,AV BLASCO IBAÑEZ 84 (JARDÍ) - VALÈNCIA,39.4747509908169,-0.350892278224253,,,0,
1150,1150,Pintor Jacomart - Sant Doménec Savio,C PINTOR JACOMART 15 - VALÈNCIA,39.4968007778838,-0.375981946314974,,,0,
1151,1151,Centre de Salut Salvador Allende,C CONDE DE LUMIARES 4 (DAVANT) - VALÈNCIA,39.4947189568064,-0.372730301289164,,,0,
1152,1152,Camí de Montcada - Camí Alqueria de Marquet,CAMI MONCADA 341 (DAVANT) - VALÈNCIA,39.5122017279213,-0.386330821336243,,,0,
1153,1153,Velòdrom Lluís Puig,C SENDA DEL POLVORIN 32 - BENIMÀMET,39.5023067447204,-0.426394091100048,,,0,
1158,1158,Passeig Marítim - Séquia de la Cadena,PSEG PASEO MARITIMO CASABLANCA - VALÈNCIA,39.4735076472157,-0.324666459982753,,,0,
1159,1159,Hospital Malva-rosa,PSEG PASEO MARITIMO ISABEL DE VILLENA - VALÈNCIA,39.4770607415504,-0.324621536476107,,,0,
116,116,Blasco Ibáñez - Dr. Manuel Candela,AV BLASCO IBAÑEZ 104 (JARDÍ) - VALÈNCIA,39.4740450302764,-0.348583133502474,,,0,
1160,1160,Passeig Marítim - Vicent la Roda,PSEG PASEO MARITIMO DAVANT.VTE.LA RODA - VALÈNCIA,39.479031040775,-0.324629107896173,,,0,
1161,1161,Passeig Marítim - Font d'en Carrós,PSEG PASEO MARITIMO DAVANT FONT D'EN CARRÓS - VALÈNCIA,39.4812656715298,-0.324674565694566,,,0,
1162,1162,Passeig Marítim - Mendizábal,PSEG PASEO MARITIMO FINAL PASSEIG - VALÈNCIA,39.4835524413656,-0.325202401982979,,,0,
1163,1163,Isabel de Villena - Font d'en Carrós,C ISABEL DE VILLENA 127 - VALÈNCIA,39.4811581847078,-0.325800351520385,,,0,
1164,1164,Isabel de Villena - Vicent la Roda,C ISABEL DE VILLENA 89 - VALÈNCIA,39.478966067472,-0.325857514319212,,,0,
1165,1165,Centre de Salut Malva-rosa,C ISABEL DE VILLENA 43 - VALÈNCIA,39.4768458924418,-0.325827740525239,,,0,
1168,1168,Comissaria Policia - Marítim,C DOCTOR MARCOS SOPENA 1 - VALÈNCIA,39.4630941979461,-0.328610422452826,,,0,
117,117,Ramon Llull - Escultor Alfons Gabino,C RAMON LLULL 6 - VALÈNCIA,39.4751321617036,-0.347130159173962,,,0,
1170,1170,Foc - Amadeu Desfilis,C FOC  DEL 1 - VALÈNCIA,39.5000411552864,-0.394656485430091,,,0,
1175,1175,Tres Creus - Segona República Espanyola,AV TRES CRUCES 103 (CARRIL BUS) - VALÈNCIA,39.458628918607,-0.402776519236905,,,0,
1176,1176,Tres Creus - Dr. Pérez Feliu,AV TRES CRUCES 79 (CARRIL BUS) - VALÈNCIA,39.4606008311703,-0.403994744258758,,,0,
1177,1177,Tres Creus - Tres Forques,AV TRES CRUCES CANTÓ T.FORQUES (CARRIL BUS) - VALÈNCIA,39.4628028774196,-0.405469889211303,,,0,
1183,1183,General Avilés - Dr. Nicasi Benlloch,AV GENERAL AVILES 10 - VALÈNCIA,39.4880372439621,-0.391460958144647,,,0,
1184,1184,General Avilés - Miguel Servet (parell),AV GENERAL AVILES 28 - VALÈNCIA,39.4869233323177,-0.394024093706856,,,0,
1190,1190,Tres Creus - dels Hostalers,AV TRES CRUCES 46 (CARRIL BUS) - VALÈNCIA,39.4602492832839,-0.40391266475757,,,0,
1199,1199,Comte de Torrefiel - Escultor Piquer,C CONDE DE TORREFIEL 6 - VALÈNCIA,39.4921129649698,-0.375465314857868,,,0,
12,12,Cabanyal,C DOCTOR LLUCH 229 (DAVANT) - VALÈNCIA,39.4716646440523,-0.327649534855141,,,0,
1210,1210,Blasco Ibáñez - Serradora,AV BLASCO IBAÑEZ ILLETA RENFE - VALÈNCIA,39.4706486517337,-0.335619602756348,,,0,
1211,1211,Blasco Ibáñez (imparell) - José María Haro,AV BLASCO IBAÑEZ 173 - VALÈNCIA,39.4709760930606,-0.336524679588146,,,0,
1217,1217,Dr. Peset Aleixandre - Felip Rinaldi,AV DOCTOR PESET ALEIXANDRE 24 - VALÈNCIA,39.4917369384428,-0.37611827419841,,,0,
1218,1218,Palau de l'Exposició,C AMADEO DE SABOYA 14 - VALÈNCIA,39.4736114613923,-0.362097963649788,,,0,
1223,1223,Hospital General - Urgències,AV TRES CRUCES 8 (CARRIL BUS) - VALÈNCIA,39.4669755794595,-0.406336571233835,,,0,
1225,1225,Camí nou de Picanya - Arquitecte Segura de Lago,CAMI PICAñA (CNO. NUEVO) 19 - VALÈNCIA,39.4563032183764,-0.40401675185113,,,0,
1229,1229,Orriols - Sant Miquel dels Reis,C SANTIAGO RUSIÑOL SANT JOAN BOSCO - VALÈNCIA,39.4969300144821,-0.368873812617634,,,0,
1231,1231,Dolores Marqués - Benicarló,C DOLORES MARQUES 1 - VALÈNCIA,39.4856744127312,-0.363394627099607,,,0,
1232,1232,Dolores Marqués - Reverend José María Pinazo,C DOLORES MARQUES 13 - VALÈNCIA,39.4866716920499,-0.362841261483534,,,0,
1233,1233,Dolores Marqués - Assagador d'Alboraia,C DOLORES MARQUES 27 - VALÈNCIA,39.4882820961862,-0.362043086599176,,,0,
1239,1239,Primat Reig - Xàbia,AV PRIMADO REIG 187 (DAVANT) - VALÈNCIA,39.4790131974112,-0.356596088313404,,,0,
124,124,Blasco Ibáñez - José María Orense,AV BLASCO IBAÑEZ 149 - VALÈNCIA,39.4719838613564,-0.339945288152376,,,0,
1240,1240,Lliri Blau - Mestre Ventura Pascual,C LLIRI BLAU S/N - VALÈNCIA,39.4869854203682,-0.357136998148844,,,0,
1242,1242,Mediterrània - Dr. Lluch,C MEDITERRANEO 32 - VALÈNCIA,39.4675715434256,-0.328567471120793,,,0,
1243,1243,Mediterrània - Reina,C MEDITERRANEO 21 - VALÈNCIA,39.4677961994136,-0.329061915174019,,,0,
1245,1245,Pont de l'Exposició,PSEG ALAMEDA DAVANT P.VALDÉS) - VALÈNCIA,39.4738150450158,-0.364430715660363,,,0,
125,125,Blasco Ibáñez - Actor Enrique Rambal,AV BLASCO IBAÑEZ 127 - VALÈNCIA,39.472804470575,-0.342582993937016,,,0,
1254,1254,Cid - Aiora,AV CID 11 - VALÈNCIA,39.4672339790557,-0.392311312706386,,,0,
126,126,Blasco Ibáñez - Hondures,AV BLASCO IBAÑEZ 97 - VALÈNCIA,39.4737710406095,-0.345881377138186,,,0,
1263,1263,Comte de Salvatierra - Colón,C CONDE DE SALVATIERRA 3 - VALÈNCIA,39.4710853202928,-0.369079855609523,,,0,
1265,1265,Conselleria d'Educació,AV CAMPANAR CONSELLERIA - VALÈNCIA,39.4837259160201,-0.391946766435601,,,0,
1266,1266,Antic Hospital La Fe,AV CAMPANAR 21 - VALÈNCIA,39.4841128036789,-0.391507092917777,,,0,
1268,1268,Hospital General,AV TRES CRUCES 2 (CARRIL BUS) - VALÈNCIA,39.4686432830262,-0.406562441317259,,,0,
127,127,Blasco Ibáñez - Actriu Encarna Máñez,AV BLASCO IBAÑEZ 126 - VALÈNCIA,39.4729880496129,-0.346215883069614,,,0,
1272,1272,Monestir de Poblet - Centre Comercial,AV PIO XII 51 - VALÈNCIA,39.4850414896994,-0.396103608907428,,,0,
1274,1274,Mercat de Castilla,AV TRES CRUCES 10 - VALÈNCIA,39.4660043095697,-0.406379788140296,,,0,
1277,1277,Primat Reig - Ministre Luis Mayans,AV PRIMADO REIG 18 - VALÈNCIA,39.4895413240156,-0.370742579627545,,,0,
1278,1278,Àngel Guimerà - Ferran el Catòlic,C ANGEL GUIMERA 10 - VALÈNCIA,39.4704078527298,-0.384448710174855,,,0,
128,128,Blasco Ibáñez - Músic Ginés,AV BLASCO IBAÑEZ 158 - VALÈNCIA,39.4720494896668,-0.342960938908552,,,0,
1280,1280,Pintor Jacomart - Alcanyís,C PINTOR JACOMART 57 - VALÈNCIA,39.4958890662139,-0.379947390974828,,,0,
1282,1282,Facultat de Ciències Socials,C RAMON LLULL SOLAR - VALÈNCIA,39.4794091065428,-0.345736641838257,,,0,
1283,1283,Campus Tarongers,C RAMON LLULL NOVES FACULTATS - VALÈNCIA,39.4792773626074,-0.345328074334429,,,0,
1289,1289,Vicent Puchol - Arbres,C VICENTE PUCHOL 25 - CASTELLAR-OLIVERAL,39.4278532339642,-0.363915058916504,,,0,
129,129,Blasco Ibáñez - Enginyer Rafael Janini,AV BLASCO IBAÑEZ 168 - VALÈNCIA,39.4712486229191,-0.340259125628761,,,0,
1290,1290,Centre de Salut de València-Castellar,C VICENTE PUCHOL 24 - CASTELLAR-OLIVERAL,39.4282424532239,-0.363971545578161,,,0,
1295,1295,Mestre Rodrigo - Marqués de Sant Joan,AV MAESTRO RODRIGO 10 - VALÈNCIA,39.4775290547034,-0.39730897371444,,,0,
1296,1296,Marqués de Sant Joan - Campanar,C MARQUÉS DE SAN JUAN 7 - VALÈNCIA,39.4786677153458,-0.395161571098252,,,0,
1298,1298,Espinosa - Ferran el Catòlic,C ESPINOSA 1 - VALÈNCIA,39.4721221948729,-0.384395971701396,,,0,
13,13,Dr. Lluch - Vicent Guillot,C DOCTOR LLUCH 228 - VALÈNCIA,39.4734693265711,-0.327376919275086,,,0,
1305,1305,Na Jordana,C GUILLEM DE CASTRO 160 - VALÈNCIA,39.4810751688904,-0.380981061390234,,,0,
1306,1306,Pont de les Drassanes,AV INGENIERO MANUEL SOTO 15 (DAVANT ILLETA) - VALÈNCIA,39.4550626122368,-0.329974582798691,,,0,
1307,1307,Tres Creus - Llombai,AV TRES CRUCES 49 - VALÈNCIA,39.4643976759904,-0.405260805469348,,,0,
1310,1310,Manuel Carboneres - Sant Francesc de Paula,C MANUEL CARBONERES 8 (DAVANT) - VALÈNCIA,39.4462113849823,-0.330581776542379,,,0,
1311,1311,Teatre Flumen,C PADRE FERRIS 21 - VALÈNCIA,39.4831009241716,-0.384989700974926,,,0,
1318,1318,Molinell (parell) - Alboraia,C MOLINELL 8 - VALÈNCIA,39.4849411815053,-0.369712217669426,,,0,
1319,1319,Corts Valencianes - Palau de Congressos,AV CORTS VALENCIANES P.CONGRESSOS (PAR) - VALÈNCIA,39.4941838510958,-0.401818111532799,,,0,
1320,1320,Camp de Túria (parell) - Corts Valencianes,C CAMP DEL TURIA 6 - VALÈNCIA,39.4943253414252,-0.404004193537992,,,0,
1321,1321,Camp de Túria (imparell) - Corts Valencianes,C CAMP DEL TURIA 6 (DAVANT) - VALÈNCIA,39.4939147653545,-0.403370815095573,,,0,
1326,1326,Ciutat de l'Artista Faller,C NINOT  DEL 19 (DAVANT) - VALÈNCIA,39.5004427684313,-0.393102611706814,,,0,
1329,1329,Palmaret - Montcada,AV PALMARET  DEL s/n - CARPESA,39.5176982825771,-0.386332302086543,,,0,
1330,1330,Florista,C CUARTELL 4 - VALÈNCIA,39.4955744903869,-0.397432631294019,,,0,
1331,1331,Florista - Carrasqueta,C FLORISTA 113 - VALÈNCIA,39.4940494051074,-0.396208821092431,,,0,
1332,1332,Garbí,C FLORISTA 63 - VALÈNCIA,39.4919493849329,-0.394034498066274,,,0,
1333,1333,Bon Recés - Florista,C BUEN RETIRO CANTÓ FLORISTA - VALÈNCIA,39.490421248775,-0.392439424346761,,,0,
1348,1348,Dr. Nicasi Benlloch - Emili Nadal,C DOCTOR NICASIO BENLLOCH 27 - VALÈNCIA,39.4888752107413,-0.392265889725067,,,0,
1349,1349,Sant Vicent Màrtir - Mossén Febrer,C SAN VICENTE MARTIR 306 - VALÈNCIA,39.4509734148101,-0.385065758036486,,,0,
135,135,Sants Just i Pastor - Humanista Furió,C SANTOS JUSTO Y PASTOR 81 - VALÈNCIA,39.4689682536445,-0.345229046178694,,,0,
1350,1350,Sant Vicent Màrtir - Almudaina,C SAN VICENTE MARTIR 267 - VALÈNCIA,39.4529865903496,-0.384458755400165,,,0,
1352,1352,la Plata - Alberola,AV PLATA  DE  LA 33 - VALÈNCIA,39.4542860267025,-0.369458910723519,,,0,
1353,1353,la Plata - Ausiàs March,AV PLATA  DE  LA 7 - VALÈNCIA,39.4531878399892,-0.372036458188795,,,0,
1354,1354,Poliesportiu Malilla,C BERNAT DESCOLL 14 - VALÈNCIA,39.4518484263395,-0.374465534827709,,,0,
1355,1355,Oltà - Ausiàs March,C OLTA 70 - VALÈNCIA,39.4531570874723,-0.373953731422845,,,0,
1356,1356,la Plata - Fonteta Sant Lluís,AV PLATA  DE  LA 7 (DAVANT) - VALÈNCIA,39.4528970755016,-0.371796393894455,,,0,
1357,1357,Parc central de Bombers,AV PLATA  DE  LA 33 (DAVANT) - VALÈNCIA,39.4541259870251,-0.368828586851422,,,0,
136,136,Sants Just i Pastor - Lleons,C SANTOS JUSTO Y PASTOR 59 - VALÈNCIA,39.4697516354249,-0.347997957996148,,,0,
1361,1361,La Carrasca,AV NARANJOS  LOS DAVANT CIÈNCIES SOCIALS. - VALÈNCIA,39.4799062553548,-0.344696094216765,,,0,
1362,1362,Tomàs de Montañana - Albereda,C PADRE TOMAS MONTAÑANA ROTONDA (PAR) - VALÈNCIA,39.4610557939198,-0.353339355014323,,,0,
1363,1363,Regne de València (imparell) - Alcalde Reig,AV REGNE DE VALENCIA 100 (DAVANT) - VALÈNCIA,39.4624277177496,-0.361179278171126,,,0,
1364,1364,Regne de València (parell) - Alcalde Reig,AV REGNE DE VALENCIA 102 - VALÈNCIA,39.4620569324604,-0.360861818052558,,,0,
1365,1365,Tomàs de Montañana - França,C PADRE TOMAS MONTAÑANA ROTONDA (IMPAR) - VALÈNCIA,39.4610675202834,-0.352851513197982,,,0,
1366,1366,La Llum,C ALQUERIA NOVA CORTES D'ARENÓS - VALÈNCIA,39.4684573741975,-0.417148661609603,,,0,
1369,1369,Tres Creus (central) - Pare Esteban Pernet,AV TRES CRUCES BARDISSA CENTRAL - VALÈNCIA,39.4673821192118,-0.406124958535859,,,0,
137,137,Amistat,C SANTOS JUSTO Y PASTOR 27 - VALÈNCIA,39.4703086423513,-0.349845082896736,,,0,
1370,1370,Pare Esteban Pernet - Misericòrdia,C PADRE ESTEBAN PERNET MISERICÒRDIA - VALÈNCIA,39.4672305875242,-0.409471463174629,,,0,
1374,1374,Punta al Mar (parell) - Riu,CAMI PUNTA AL MAR  DE LA 29 (DAVANT) - VALÈNCIA,39.4454954732559,-0.340442086512062,,,0,
1375,1375,Punta al Mar (parell) - Canal,CAMI PUNTA AL MAR  DE LA 57 (DAVANT) - VALÈNCIA,39.4452900020122,-0.338268205176475,,,0,
1376,1376,Camí del Canal (imparell) - Guitarrista Tàrrega,CAMI CANAL 40 - VALÈNCIA,39.4472629945628,-0.335361930432234,,,0,
138,138,Centre de Salut República Argentina,C SANTOS JUSTO Y PASTOR 9 - VALÈNCIA,39.471175994271,-0.352827172438123,,,0,
1380,1380,Punta al Mar (imparell) - Canal,CAMI PUNTA AL MAR  DE LA 57 - VALÈNCIA,39.4453390411894,-0.338255809999499,,,0,
1381,1381,Punta al Mar (imparell) - Riu,CAMI PUNTA AL MAR  DE LA 29 - VALÈNCIA,39.4455540330011,-0.340578428591909,,,0,
1382,1382,Hospital Clínic - Facultat Medicina,AV BLASCO IBAÑEZ BARDISSA CENTRAL (H.CLÍNIC) - VALÈNCIA,39.4787171805196,-0.363939535185763,,,0,
1384,1384,Serradora - Poliesportiu,C SERRERIA POLIESPORTIU - VALÈNCIA,39.4666773260194,-0.335037159019918,,,0,
1385,1385,Martí Grajales - Serradora,C MARTI GRAJALES 2 - VALÈNCIA,39.4682548496361,-0.334555304356927,,,0,
1386,1386,Centre de Salut Serreria,C SERRERIA 73 - VALÈNCIA,39.4681228700791,-0.335099673716965,,,0,
1387,1387,Sants Just i Pastor - Fusta,C SANTOS JUSTO Y PASTOR 151 - VALÈNCIA,39.4665689227045,-0.336863289487974,,,0,
139,139,Sants Just i Pastor - Lluís de Milà,C SANTOS JUSTO Y PASTOR 22 - VALÈNCIA,39.4708925463633,-0.352848696213794,,,0,
14,14,Cavite - Riu Tajo,C CAVITE 26 - VALÈNCIA,39.4762090318959,-0.32650866172641,,,0,
140,140,Amistat,C SANTOS JUSTO Y PASTOR 56 - VALÈNCIA,39.4697860671044,-0.349070352417153,,,0,
1409,1409,Blasco Ibáñez - Manuela Estelles,AV BLASCO IBAÑEZ 200 - VALÈNCIA,39.4701967795776,-0.33644449934509,,,0,
141,141,Sants Just i Pastor - Peris Brell,C SANTOS JUSTO Y PASTOR 78 - VALÈNCIA,39.4689873203724,-0.34641727771196,,,0,
1410,1410,Borbotó,C GUILLERMINA MEDRANO S/N (IMPAR) - BORBOTÓ,39.5141815149223,-0.388667819542672,,,0,
1411,1411,Borbotó,C GUILLERMINA MEDRANO S/N (PAR) - BORBOTÓ,39.5141689176892,-0.388588329855203,,,0,
1413,1413,Real de Madrid - Entrada Pinet,AV REAL DE MADRID 101-103 - VALÈNCIA,39.4303143363484,-0.39260707639452,,,0,
1416,1416,Inst. Obrer de Val. (imparell) - Autopista Saler,C INSTITUTO OBRERO DE VALENCIA 21 - VALÈNCIA,39.4558115936049,-0.357837922287265,,,0,
1417,1417,Inst. Obrer de Val. (imparell) - Amado Granell Mesado,C INSTITUTO OBRERO DE VALENCIA 3 - VALÈNCIA,39.4545796225715,-0.360715209199222,,,0,
1418,1418,Inst. Obrer de Val. (parell) - Amado Granell Mesado,C INSTITUTO OBRERO DE VALENCIA 2 - VALÈNCIA,39.4544153966765,-0.360594411376701,,,0,
1419,1419,Inst. Obrer de Val. (parell) - Autopista Saler,C INSTITUTO OBRERO DE VALENCIA 17 (DAVANT) - VALÈNCIA,39.4560764073925,-0.356735748399867,,,0,
1421,1421,Petxina - Torres,PSEG PECHINA 53 - VALÈNCIA,39.4741271552411,-0.399315004938467,,,0,
1422,1422,Petxina - Pérez Galdos,PSEG PECHINA 47 - VALÈNCIA,39.4746477892431,-0.396753858586019,,,0,
1423,1423,Petxina - Terol,PSEG PECHINA 41 - VALÈNCIA,39.4759735272561,-0.393586452437412,,,0,
1424,1424,Petxina - Ferran el Catòlic,PSEG PECHINA 28 - VALÈNCIA,39.4771840896584,-0.39068182184832,,,0,
1425,1425,Petxina - Túria,PSEG PECHINA 3 - VALÈNCIA,39.4796071740306,-0.384303047788134,,,0,
1427,1427,Jacinto Benavente - Borriana,AV JACINTO BENAVENTE 16 - VALÈNCIA,39.4663286456128,-0.362831780510757,,,0,
1428,1428,Jacinto Benavente - Peris i Valero,AV JACINTO BENAVENTE S/N - VALÈNCIA,39.463451448348,-0.36126812129095,,,0,
1430,1430,Albereda - Illes Canàries,PSEG ALAMEDA 31 - VALÈNCIA,39.4678851133704,-0.360447456208607,,,0,
1431,1431,Tirso de Molina - Pius XII,AV TIRSO DE MOLINA 5 (ACCÉS) - VALÈNCIA,39.4784221216223,-0.392915335872858,,,0,
1432,1432,Tirso de Molina - Mestre Rodrigo,AV TIRSO DE MOLINA 21 - VALÈNCIA,39.4768844256583,-0.396420856018741,,,0,
1435,1435,Tres Creus - Prínceps de Mònaco,AV TRES CRUCES 22 - VALÈNCIA,39.4646583054978,-0.406279204414838,,,0,
1436,1436,Ausiàs March - Dr. Waksman,AV AUSIAS MARCH 7 - VALÈNCIA,39.4560963514929,-0.374865493062664,,,0,
1438,1438,Dr. Tomàs Sala - Gaspar Aguilar,C DOCTOR TOMAS SALA S/N (CARRIL BUS)(PAR) - VALÈNCIA,39.4491040688774,-0.394472456931861,,,0,
144,144,Dr. Manuel Candela (parell) - Rodríguez de Cepeda,C DOCTOR MANUEL CANDELA 28 - VALÈNCIA,39.4681177425848,-0.350040414695845,,,0,
1440,1440,Sant Marcel·lí,C DOCTOR TOMAS SALA 10 (CARRIL BUS) - VALÈNCIA,39.4472973530597,-0.391191998665869,,,0,
1441,1441,Dr. Tomàs Sala (parell) - Sant Vicent Màrtir,C DOCTOR TOMAS SALA 43(DAVANT CARRIL BUS) - VALÈNCIA,39.4463937792402,-0.387226046486397,,,0,
1442,1442,Dr. Tomàs Sala (imparell) - Sant Vicent Màrtir,C DOCTOR TOMAS SALA 43 (CARRIL BUS) - VALÈNCIA,39.4469226092615,-0.387277033581155,,,0,
1443,1443,Dr. Tomàs Sala - Carters,C DOCTOR TOMAS SALA 23 (CARRIL BUS) - VALÈNCIA,39.4476663870517,-0.390555310587547,,,0,
1444,1444,Dr. Tomàs Sala - Jerónima Galés,C DOCTOR TOMAS SALA S/N (CARRIL BUS) (IMPAR) - VALÈNCIA,39.4490719085628,-0.393464012273139,,,0,
1448,1448,Camp de Túria - Mestre Rodrigo,C CAMP DEL TURIA 16 - VALÈNCIA,39.4930699631175,-0.406615151121372,,,0,
145,145,Dr. Manuel Candela (parell) - Blasco Ibáñez,C DOCTOR MANUEL CANDELA 72 - VALÈNCIA,39.4728120916615,-0.348108953405148,,,0,
1461,1461,França - Albereda,AV FRANCIA 1 - VALÈNCIA,39.4615598185442,-0.356590328981269,,,0,
1462,1462,Albereda - Pont del Regne,PSEG ALAMEDA PONT DEL REGNE - VALÈNCIA,39.4609744656923,-0.356792009786976,,,0,
1463,1463,Malilla (imparell) - Illa Formentera,CTRA MALILLA 89 - VALÈNCIA,39.446888001573,-0.37986152425839,,,0,
1464,1464,Malilla (imparell) - Illa Cabrera,CTRA MALILLA 65 ACC. - VALÈNCIA,39.44936088825,-0.379293676529483,,,0,
1465,1465,Malilla (imparell) - Bernat Descoll,CTRA MALILLA S/N (JARDÍ) - VALÈNCIA,39.4509575050915,-0.378838274583446,,,0,
1472,1472,Pius IX - Salvador Perles,AV PIO IX S/N - VALÈNCIA,39.443231900444,-0.393722220688276,,,0,
1473,1473,Pius IX - Cabanilles,AV PIO IX 27 - VALÈNCIA,39.4451565623237,-0.392978720844713,,,0,
1474,1474,Accés Cementeri,CAMI VIEJO PICASENT S/N - VALÈNCIA,39.4457785932514,-0.396916117820181,,,0,
1475,1475,Tanatori Municipal,CAMI VIEJO PICASENT S/N - VALÈNCIA,39.4429448294081,-0.397940461281872,,,0,
1485,1485,Palmaret - Rosa dels Vents (davant),AV PALMARET  DEL S/N - CARPESA,39.5161482988938,-0.381421969449411,,,0,
1489,1489,Tarongers - Facultat de Magisteri,AV NARANJOS  LOS S/N - VALÈNCIA,39.4801071622897,-0.347228853307567,,,0,
1490,1490,Tarongers - Junt Entrada Universitats,AV NARANJOS  LOS S/N - VALÈNCIA,39.4808227802923,-0.347540986966795,,,0,
1492,1492,Albalat dels Tarongers - Vinalopó,C ALBALAT DELS TARONGERS 22(DAVANT) - VALÈNCIA,39.4783128474315,-0.347678455357411,,,0,
1499,1499,Aiora,C SANTOS JUSTO Y PASTOR JUNT ESTACIÓ METRO - VALÈNCIA,39.4680668710551,-0.343027393678939,,,0,
150,150,Cardenal Benlloch (parell) - Port,AV CARDENAL BENLLOCH 6 - VALÈNCIA,39.4675271358648,-0.356097017437189,,,0,
1500,1500,Sants Just i Pastor - Escultor Esteve Edo,C SANTOS JUSTO Y PASTOR JUNT COLEGI - VALÈNCIA,39.4669124223509,-0.339058391376644,,,0,
1501,1501,Sants Just i Pastor - Serradora,C SANTOS JUSTO Y PASTOR 154 - VALÈNCIA,39.4663202589753,-0.337014455349543,,,0,
1503,1503,Aiora,C SANTOS JUSTO Y PASTOR 103 - VALÈNCIA,39.4682448494964,-0.342658678830377,,,0,
1515,1515,Sants Just i Pastor - Jose Maria Haro,C SANTOS JUSTO Y PASTOR 145 - VALÈNCIA,39.4674383982855,-0.339811150442131,,,0,
1518,1518,la Malva-rosa - Fuerteventura,AV MALVARROSA 89 - VALÈNCIA,39.481102719967,-0.328145840030703,,,0,
1520,1520,Estació del Nord - Guillem de Castro,PL SAN AGUSTIN 2 - VALÈNCIA,39.4685158468081,-0.380278249274369,,,0,
153,153,Cardenal Benlloch - Dr. Vicente Pallarés,AV CARDENAL BENLLOCH 104 - VALÈNCIA,39.4741733799394,-0.352849696348178,,,0,
1532,1532,Menorca - França,C  s/n - VALÈNCIA,39.4589590964613,-0.343502241724565,,,0,
1533,1533,França - Higinio Noja,AV FRANCIA 51 - VALÈNCIA,39.4592925374454,-0.346277485053447,,,0,
1534,1534,França-Vicente Beltrán,AV FRANCIA 18 (davant) - VALÈNCIA,39.4600923521553,-0.350093683173715,,,0,
1535,1535,França-Tomas de Montañana,AV FRANCIA 2 (davant) - VALÈNCIA,39.460595146976,-0.352411428691625,,,0,
1536,1536,Parc Gulliver,PSEG ALAMEDA s/n - VALÈNCIA,39.4631672605092,-0.358412298844695,,,0,
1537,1537,Parc Gulliver,PSEG ALAMEDA s/n - VALÈNCIA,39.4631862735645,-0.358793009161645,,,0,
1538,1538,França-Albereda,AV FRANCIA 4 - VALÈNCIA,39.460051822427,-0.352146657285161,,,0,
1539,1539,França-Pintor Maella,AV FRANCIA s/n - VALÈNCIA,39.4593131160164,-0.348837372809801,,,0,
154,154,Blasco Ibáñez - Rubén Darío,AV BLASCO IBAÑEZ 37 (BARDISSA LATERAL) - VALÈNCIA,39.4758461938699,-0.35387668373385,,,0,
1540,1540,França-Trafalgar,AV FRANCIA 44 - VALÈNCIA,39.4586153083664,-0.345602353702478,,,0,
1541,1541,Menorca - Balears,C  s/n - VALÈNCIA,39.4590346954904,-0.342799902872055,,,0,
1546,1546,La Malva-rosa - Gran Canària,C  42 - VALÈNCIA,39.4835019266875,-0.328802411574422,,,0,
1547,1547,Uruguai - Crta. Escrivà,C URUGUAY 27 - VALÈNCIA,39.4579897744492,-0.386756188803256,,,0,
155,155,Blasco Ibáñez - Almela i Vives,AV BLASCO IBAÑEZ 31 - VALÈNCIA,39.4767781402851,-0.356169377159202,,,0,
1550,1550,Hospital València al Mar,C  S/N - VALÈNCIA,39.4772464916218,-0.329760887334613,,,0,
1551,1551,La Cadena - Pare Antón Martí,AV NARANJOS  LOS 43 - VALÈNCIA,39.4754360549849,-0.329062037317548,,,0,
1552,1552,Marí Blas de Lezo - Felip Gauna,C MARINO BLAS DE LEZO 30 - VALÈNCIA,39.4722512036119,-0.33400770050541,,,0,
1562,1562,Palmaret - Rosa dels Vents,AV PALMARET  DEL s/n - CARPESA,39.5162151714085,-0.381396415681931,,,0,
1566,1566,Beniferri,AV CORTS VALENCIANES 35 - VALÈNCIA,39.4907718395457,-0.400013829647396,,,0,
157,157,Blasco Ibáñez - Gascó Oliag,AV BLASCO IBAÑEZ 25 - VALÈNCIA,39.4773208179472,-0.357522431345356,,,0,
1574,1574,Túria,GV FERNANDO EL CATOLICO s/n - VALÈNCIA,39.4771458761923,-0.389588038460887,,,0,
158,158,Facultat de Psicologia,AV BLASCO IBAÑEZ 21 DUP. - VALÈNCIA,39.4779608810476,-0.36007360145881,,,0,
1584,1584,Joaquím Ballester - Pare Ferrís,C JOAQUÍN BALLESTER 8 - VALÈNCIA,39.4846305139617,-0.386569236125987,,,0,
1585,1585,Natzaret,C CASTELL DE POP S/N - VALÈNCIA,39.447470242704,-0.331776040102165,,,0,
1587,1587,Marina de València,C REINA (C.) 3 - VALÈNCIA,39.4637865833586,-0.329473965599835,,,0,
1589,1589,Drassanes del Grau,C DOCTOR J.J. DOMINE 4 - VALÈNCIA,39.4604804037141,-0.332714259269103,,,0,
1590,1590,Joan Verdeguer - Port,C  S/N - VALÈNCIA,39.4591958490087,-0.333827805916403,,,0,
1591,1591,Les Naus,C  34 (DAVANT) - VALÈNCIA,39.4588029580643,-0.336108278463493,,,0,
1592,1592,Joan Verdeguer - Isaac Peral,C  5 - VALÈNCIA,39.4590483756637,-0.339331109272488,,,0,
1593,1593,Eivissa - Prof.Vicente Llorens,C  3 - VALÈNCIA,39.4610455435574,-0.339545107813824,,,0,
1594,1594,Illes Canàries - Noguera,C ISLAS CANARIAS 227 - VALÈNCIA,39.4618313019175,-0.34165272829873,,,0,
1595,1595,Illes Canàries - Trafalgar,C ISLAS CANARIAS 193 - VALÈNCIA,39.4631054318993,-0.344618130768704,,,0,
1596,1596,Illes Canàries - Vicente Beltrán,C ISLAS CANARIAS 133 ACC - VALÈNCIA,39.4641576829046,-0.347461992925617,,,0,
1597,1597,Illes Canàries - Lebon,C ISLAS CANARIAS 78 (DAVANT) - VALÈNCIA,39.4650430484599,-0.350460298926651,,,0,
1598,1598,Illes Canàries - Riu Escalona,C ISLAS CANARIAS 71 ACCS. - VALÈNCIA,39.4659066175756,-0.353412738491348,,,0,
1599,1599,Illes Canàries - Eduard Boscà,C ISLAS CANARIAS 32 (DAVANT) - VALÈNCIA,39.466414187314,-0.356254810043157,,,0,
16,16,Cavite - Vicent la Roda,C CAVITE 94 - VALÈNCIA,39.4791156178415,-0.326664683840821,,,0,
160,160,Hospital Clínic,AV BLASCO IBAÑEZ 17 - VALÈNCIA,39.4789338250009,-0.36337395901306,,,0,
1602,1602,Serradora - Peanya,C SERRERIA 11 - VALÈNCIA,39.4627917529472,-0.337580069107511,,,0,
1613,1613,Comissaria Policia - Marítim,C DOCTOR MARCOS SOPENA S/N (VERJA PORT) - VALÈNCIA,39.4628959292166,-0.328577408873951,,,0,
1615,1615,Port - Saragossa,AV PUERTO 2 ACCS. - VALÈNCIA,39.4680028844993,-0.359970672814801,,,0,
1616,1616,Port - Eduard Boscà,AV PUERTO 48 - VALÈNCIA,39.4667621272795,-0.355979342776742,,,0,
1617,1617,Port - Riu Escalona,AV PUERTO 104 - VALÈNCIA,39.465773235243,-0.352663287580423,,,0,
1618,1618,Port -Tomàs de Montañana,AV PUERTO 118 - VALÈNCIA,39.4652362751064,-0.350846668551785,,,0,
1619,1619,Port - Cases Carbonell,AV PUERTO 119 (DAVANT) - VALÈNCIA,39.4644146414679,-0.348057723561582,,,0,
162,162,Blasco Ibáñez - Jaume Roig,AV BLASCO IBAÑEZ 7 - VALÈNCIA,39.4795680056627,-0.3655496681653,,,0,
1621,1621,Port - Noguera,AV PUERTO 230 - VALÈNCIA,39.4625375629545,-0.341827658253314,,,0,
1622,1622,Port - Eivissa,AV PUERTO 256 - VALÈNCIA,39.4618188413097,-0.339188778146759,,,0,
1623,1623,Port - Pare Porta,AV PUERTO 308 - VALÈNCIA,39.4607734026158,-0.33581060189518,,,0,
1624,1624,Port - Joan Josep Sister,AV PUERTO 334 - VALÈNCIA,39.4599910554522,-0.333232738705825,,,0,
1627,1627,Dr. Lluch - Setmana Santa Marinera,C DOCTOR LLUCH 4 - VALÈNCIA,39.4637397593657,-0.3287454254318,,,0,
163,163,Jardí de Monforte,AV BLASCO IBAÑEZ 2 - VALÈNCIA,39.4787608079043,-0.365729110530143,,,0,
1630,1630,Menorca - Eivissa,C  1 - VALÈNCIA,39.4604294414023,-0.340554602155312,,,0,
1631,1631,Port - Illes Canàries,AV PUERTO 274 - VALÈNCIA,39.4615289898525,-0.338157128613071,,,0,
164,164,Blasco Ibáñez - Rectorat,AV BLASCO IBAÑEZ BARDISSA CENTRAL(J.ROIG) - VALÈNCIA,39.4790674253548,-0.365093524604622,,,0,
1646,1646,la Plata - Músic Òscar Esplá,AV PLATA  DE  LA 77 (DAVANT) - VALÈNCIA,39.4567833662635,-0.36274210290893,,,0,
165,165,Blasco Ibáñez (parell) - Ciutat Universitària,AV BLASCO IBAÑEZ 18 - VALÈNCIA,39.4779803988118,-0.363110880522132,,,0,
1651,1651,Hernández Lázaro - Centre  Comercial,C  12 ACCS - VALÈNCIA,39.4767840587941,-0.403329624204435,,,0,
1652,1652,Hernández Lázaro - Vall de la Ballestera,C  26 - VALÈNCIA,39.4789313523641,-0.403201603027172,,,0,
1653,1653,Mestre Rodrigo - General Avilés,AV MAESTRO RODRIGO 40 (ACCÉS) - VALÈNCIA,39.4837667692925,-0.401860537857927,,,0,
1654,1654,Mestre Rodrigo - la Safor,AV MAESTRO RODRIGO 109 (DAVANT) - VALÈNCIA,39.4871033947426,-0.404199061109111,,,0,
1655,1655,Mestre Rodrigo - La Plana Baixa,AV MAESTRO RODRIGO 82-A - VALÈNCIA,39.4893241008317,-0.405802438463944,,,0,
1657,1657,Nou Campanar - Hospital Arnau de Vilanova,C  BGW 11 - VALÈNCIA,39.4900997497697,-0.404302154264989,,,0,
1658,1658,la Safor - Mestre Rodrigo,C LA SAFOR. 20 (ACCÉS) - VALÈNCIA,39.488281628745,-0.40442804954192,,,0,
1659,1659,Mestre Rodrigo (Imparell) - la Safor,AV MAESTRO RODRIGO 109 - VALÈNCIA,39.4869640200569,-0.404582635190846,,,0,
166,166,Facultats,AV BLASCO IBAÑEZ 28 - VALÈNCIA,39.4774845446614,-0.3614248313895,,,0,
1660,1660,Mestre Rodrigo (Imparell) - General Avilés,AV MAESTRO RODRIGO 85 - VALÈNCIA,39.4837008018153,-0.40220967310863,,,0,
1661,1661,Bioparc,AV  S/N CARRIL BUS - VALÈNCIA,39.4764627063871,-0.406590957794013,,,0,
1662,1662,Vall de la Ballestera - Pío Baroja,C VALLE DE LA BALLESTERA 60 - VALÈNCIA,39.4786780182824,-0.40409324183243,,,0,
1663,1663,Alcalde Reig - Pont del Regne,C ALCALDE REIG 6 (DAVANT) - VALÈNCIA,39.4618072945454,-0.360132570675497,,,0,
1664,1664,Antiga Facultat Magisteri,C ALCALDE REIG 6 - VALÈNCIA,39.4616572838998,-0.360423851556286,,,0,
1665,1665,Alcalde Reig (imparell) - Pere Aleixandre,C ALCALDE REIG 9 (ACCES)(DAVANT) - VALÈNCIA,39.4598616119421,-0.358717026815128,,,0,
167,167,Facultat de Filologia,AV BLASCO IBAÑEZ 32 - VALÈNCIA,39.4768376779277,-0.359204294096099,,,0,
1670,1670,Reina - Remonta,C REINA (C.) S/N - VALÈNCIA,39.4742911068228,-0.32789851156685,,,0,
1671,1671,Reina - Espadan,C REINA (C.) 193 - VALÈNCIA,39.4716018208307,-0.328272638420766,,,0,
1672,1672,Reina - Pescadors,C REINA (C.) 143 - VALÈNCIA,39.4698610712465,-0.328529616619169,,,0,
1673,1673,Reina - Vicent Gallart,C REINA (C.) 45 - VALÈNCIA,39.4656098065869,-0.329133261360223,,,0,
1675,1675,Sueca - Puerto Rico,C  37 - VALÈNCIA,39.4613463195023,-0.374913100240337,,,0,
1676,1676,Sueca - G.V. Germanies,C  3 - VALÈNCIA,39.4633307340661,-0.376350091642933,,,0,
1677,1677,Cardenal Benlloch -La  Pobla de Farnals,AV CARDENAL BENLLOCH 54 - VALÈNCIA,39.46994273141,-0.35491934375015,,,0,
1678,1678,Cardenal Benlloch - Sants Just i Pastor,AV CARDENAL BENLLOCH 76 - VALÈNCIA,39.4721409250529,-0.353867178556761,,,0,
1679,1679,Primat Reig - Cuenca Tramoyeres,AV PRIMADO REIG 151 - VALÈNCIA,39.4822846878048,-0.360474553748842,,,0,
168,168,Blasco Ibáñez - Suècia,AV BLASCO IBAÑEZ 50 (COPUT) - VALÈNCIA,39.4761613659268,-0.356929953461184,,,0,
1680,1680,Primat Reig - Viver,AV PRIMADO REIG 103 - VALÈNCIA,39.4860866632239,-0.365636420127201,,,0,
1681,1681,Primat Reig - Motilla del Palancar,AV PRIMADO REIG 59 - VALÈNCIA,39.4887558770997,-0.369247249679066,,,0,
1682,1682,Primat Reig - Constitució,AV PRIMADO REIG 5 (ACC.) - VALÈNCIA,39.4918565228641,-0.373387457879584,,,0,
1683,1683,Dr. Peset Aleixandre - Montcada,AV DOCTOR PESET ALEIXANDRE 60 (ACC.) - VALÈNCIA,39.4909166474769,-0.379633426179317,,,0,
1684,1684,Dr. Peset Aleixandre - Av. de Burjassot,AV DOCTOR PESET ALEIXANDRE 138 - VALÈNCIA,39.4889328507802,-0.388570298824024,,,0,
1685,1685,Campanar - Conchita Piquer,AV CAMPANAR 28 - VALÈNCIA,39.4859758309951,-0.390939229436822,,,0,
1686,1686,Pérez Galdós - Tres Forques,AV PEREZ GALDOS 25 (ACC.) - VALÈNCIA,39.4645997138663,-0.388546640911893,,,0,
1687,1687,Giorgeta - Carcaixent,AV GIORGETA 18(ILLETA FGV - VALÈNCIA,39.4604710605096,-0.385453244068882,,,0,
1688,1688,Peris i Valero - Escultor Josep Capuz,AV PERIS Y VALERO 186 - VALÈNCIA,39.4621326943438,-0.363177541892991,,,0,
169,169,Blasco Ibáñez - Bèlgica,AV BLASCO IBAÑEZ 56 (JARDÍ LATERAL) - VALÈNCIA,39.4758318912344,-0.354839997256879,,,0,
1690,1690,Giorgeta - Albacete,AV GIORGETA 13 - VALÈNCIA,39.4615430342578,-0.386002643152896,,,0,
1691,1691,Pérez Galdós - Martínez Aloy,AV PEREZ GALDOS 20 - VALÈNCIA,39.4633912519753,-0.387351003140281,,,0,
1692,1692,Pérez Galdós - Heroi Romeu,AV PEREZ GALDOS 62 (ACC.) - VALÈNCIA,39.4673957026153,-0.390179359591028,,,0,
1693,1693,Trànsits,AV DOCTOR PESET ALEIXANDRE 133 - VALÈNCIA,39.4890217504282,-0.387211404582398,,,0,
1694,1694,Primat Reig - Dr. Gómez Ferrer,AV PRIMADO REIG 96 - VALÈNCIA,39.4818122319645,-0.360317091975927,,,0,
1695,1695,Cardenal Benlloch - Dr. Ferran,AV CARDENAL BENLLOCH 41 - VALÈNCIA,39.4696222937257,-0.355406400937171,,,0,
1696,1696,Jesús,AV GIORGETA 28 - VALÈNCIA,39.4589677408399,-0.384507066926268,,,0,
17,17,Cavite - Font d'en Carròs,C CAVITE 140 - VALÈNCIA,39.4815286943019,-0.326695314219209,,,0,
170,170,Dr. Gómez Ferrer - Menéndez y Pelayo,C DOCTOR GOMEZ FERRER 5 (DAVANT) - VALÈNCIA,39.479968274346,-0.360837092132905,,,0,
1700,1700,Camp del Túria - Marina Baixa,C CAMP DEL TURIA S/N - VALÈNCIA,39.4925824896977,-0.406692352669744,,,0,
1706,1706,Pinedo,RTDA  S/N - PINEDO,39.4194951574233,-0.335974058847628,,,0,
171,171,Cavanilles - Primat Reig,C CAVANILLES 7 - VALÈNCIA,39.4839996817692,-0.364204596090702,,,0,
1714,1714,Fires(imparell) - Cementeri,AV FERIAS  DE LAS S/N - BENIMÀMET,39.505618291324,-0.424637798528162,,,0,
1715,1715,Fires(parell) - Cementeri,AV FERIAS  DE LAS S/N - BENIMÀMET,39.505677762904,-0.424304744568905,,,0,
1716,1716,Ferran el Catòlic - S. Ignacio de Loyola,GV FERNANDO EL CATOLICO 53 - VALÈNCIA,39.4741126628168,-0.388028760555808,,,0,
172,172,Cavanilles - Álvaro de Bazán,C CAVANILLES 18 (DAVANT) - VALÈNCIA,39.481994210973,-0.365261927099453,,,0,
1720,1720,Corts Valencianes - Constitució,AV CORTS VALENCIANES 111 (DAVANT) - TAVERNES BLANQUES,39.5087990523701,-0.365300313090555,,,0,
1721,1721,Corts Valencianes - Dr. Barraquer,AV CORTS VALENCIANES 120 - TAVERNES BLANQUES,39.5087222055289,-0.36517785944058,,,0,
1723,1723,Ribàs(parell) - Dr. Ruiz Comes,CAMI RIBAS S/N (DAVANT TERRAPLÉN) - CASTELLAR-OLIVERAL,39.431120033172,-0.35987488410371,,,0,
1724,1724,Ribàs(imparell) - Dr. Ruiz Comes,CAMI RIBAS S/N (TERRAPLÈN) - CASTELLAR-OLIVERAL,39.4310658923365,-0.359715930633983,,,0,
173,173,Cavanilles - Vivers,C CAVANILLES 2 (DAVANT) - VALÈNCIA,39.4801420016914,-0.366183592961557,,,0,
1733,1733,Hospital Dr. Peset,AV GASPAR AGUILAR 92 DUP - VALÈNCIA,39.4522340448097,-0.393310768856196,,,0,
1734,1734,Carda - Moro Zeit,C CARDA 21ACC (DAVANT) - VALÈNCIA,39.4751127223052,-0.380872991816333,,,0,
174,174,Jaume Roig - Álvaro de Bazán,C JAIME ROIG 12 - VALÈNCIA,39.4812704251948,-0.363910442978927,,,0,
1741,1741,Campanar,AV PIO XII S/N (JARDÍ) - VALÈNCIA,39.4834788522092,-0.394820390868177,,,0,
1742,1742,Beat Juan Grande - Vicent la Roda,C  40 - VALÈNCIA,39.4797632300967,-0.329638920326387,,,0,
1743,1743,Albereda - Palau de la Música,PSEG ALAMEDA 36 (DAVANT) - VALÈNCIA,39.4652596823085,-0.359467835850285,,,0,
1744,1744,Albereda (riu) - L'Hemisfèric,PSEG ALAMEDA DAVANT TORRE FRANÇA - VALÈNCIA,39.4594354966374,-0.352962141326598,,,0,
1745,1745,Albereda (riu) - Museu de les Ciències,PSEG ALAMEDA S/N (DAVANT 47) - VALÈNCIA,39.457570316777,-0.350261128169614,,,0,
1746,1746,Menorca -  Centre Comercial,C  17 - VALÈNCIA,39.457584894564,-0.345022998785365,,,0,
1747,1747,Serradora - Port,C SERRERIA 4 - VALÈNCIA,39.4620870678017,-0.33798659350885,,,0,
1748,1748,Marítim - Serradora,C SERRERIA 12 - VALÈNCIA,39.4640199956724,-0.336123890207536,,,0,
1749,1749,Lluís Peixó - Comte Melito,C  S/N - VALÈNCIA,39.4751448514558,-0.333448098000921,,,0,
175,175,Jaume Roig - Primat Reig,C JAIME ROIG 26 - VALÈNCIA,39.4831955006509,-0.362985400198178,,,0,
1750,1750,Fausto Elio (parell) - Universitat Politècnica,C  28 ACC. - VALÈNCIA,39.4789915912146,-0.332672634376279,,,0,
1751,1751,La Malva-rosa - Mendizàbal,C MENDIZABAL 17ACC (DAVANT) - VALÈNCIA,39.4838740857135,-0.32922646131491,,,0,
1752,1752,Fausto Elio (imparell) - Universitat Politècnica,C  S/N (DAVANT 28 ACC.) - VALÈNCIA,39.4792109579329,-0.333004078871049,,,0,
1753,1753,Lluís Peixó - Tarongers,C  SOLAR - VALÈNCIA,39.4752741502101,-0.333738865849832,,,0,
1754,1754,Marí Blas de Lezo - Camí Cabanyal,C MARINO BLAS DE LEZO 51 ACC. - VALÈNCIA,39.4724280928309,-0.334274066940063,,,0,
1755,1755,Marí Blas de Lezo(imparell) -Estació Cabanyal,C MARINO BLAS DE LEZO 17 - VALÈNCIA,39.470910709761,-0.334661468646445,,,0,
1756,1756,Serradora - Sants Just i Pastor,C SERRERIA 57 - VALÈNCIA,39.4662962235768,-0.335415647373283,,,0,
1757,1757,Marítim - Serradora,C SERRERIA 35 - VALÈNCIA,39.4645741949914,-0.33618359172059,,,0,
1759,1759,Menorca -  Centre Comercial,C  24 ACC. - VALÈNCIA,39.457428926844,-0.345891153846208,,,0,
1760,1760,Albereda - Museu de les Ciències,PSEG ALAMEDA 47 - VALÈNCIA,39.4577180440615,-0.35003202265556,,,0,
1761,1761,Albereda - L'Hemisfèric,PSEG ALAMEDA TORRE FRANÇA - VALÈNCIA,39.4595216482238,-0.352594352807711,,,0,
1763,1763,Jacinto Benavente - Pont Angel Custodi,AV JACINTO BENAVENTE 27 (DAVANT) - VALÈNCIA,39.4643187700419,-0.361134856808693,,,0,
1764,1764,Jacinto Benavente - Palau de la Música,AV JACINTO BENAVENTE 14 (DAVANT) - VALÈNCIA,39.4668377533596,-0.362558417056533,,,0,
1765,1765,Museu Faller,PL MONTEOLIVETE 3 - VALÈNCIA,39.4591715851531,-0.358574379725601,,,0,
1766,1766,Guillem de Castro - Comissaria de policia,C GUILLEM DE CASTRO 34 - VALÈNCIA,39.4709211697899,-0.383567253718184,,,0,
1768,1768,Marí Blas de Lezo(parell) -Estació Cabanyal,C MARINO BLAS DE LEZO S/N(MILLARS) - VALÈNCIA,39.4693840383372,-0.334489294427479,,,0,
1769,1769,la Murta (imparell) - Cementeri,C  IMPAR - SEDAVÍ,39.4250776680685,-0.378032953263583,,,0,
177,177,Benimaclet,C EMILIO BARO 14 - VALÈNCIA,39.4851199386139,-0.362050108376521,,,0,
1770,1770,la Murta (imparell) - Assagador la Torre,C  IMPAR - SEDAVÍ,39.4269146125316,-0.376871121408775,,,0,
1771,1771,la Murta (parell) - Assagador la Torre,C  PAR - SEDAVÍ,39.4269579769334,-0.377005129776373,,,0,
1772,1772,la Murta (parell) - Cementeri,C  PAR - SEDAVÍ,39.425046447351,-0.378195795547372,,,0,
1773,1773,Doctor Álvaro López - Illa de Hierro,C  79 ACC - VALÈNCIA,39.4827714232069,-0.330538025537687,,,0,
1774,1774,Doctor Álvaro López - Vicent La Roda,C  S/N (ESQUINA VTE.LA RODA) - VALÈNCIA,39.480566938273,-0.331027190235292,,,0,
1775,1775,Palau de la Música,PSEG ALAMEDA 32 (DAVANT) - VALÈNCIA,39.4672537999797,-0.360470627220818,,,0,
1776,1776,Albereda - Palau de la Música,PSEG ALAMEDA 35 - VALÈNCIA,39.4657818346776,-0.359396623405455,,,0,
178,178,Emili Baró - Manuel Castellanos,C EMILIO BARO 40 - VALÈNCIA,39.4867048794787,-0.361264256911634,,,0,
1783,1783,Uruguai (imparell) - Jeroni Munyós,C URUGUAY 5 - VALÈNCIA,39.4597323428281,-0.385954214528596,,,0,
1784,1784,Carcaixent - Giorgeta,C CARCAGENTE 4 DUP - VALÈNCIA,39.4607135750395,-0.386196955551127,,,0,
1785,1785,Uruguai (parell) - Jeroni Munyós,C URUGUAY 8 - VALÈNCIA,39.4583107273258,-0.386971146496581,,,0,
179,179,Emili Baró - Francesc Martínez,C EMILIO BARO 58 - VALÈNCIA,39.4882974643225,-0.360459836693452,,,0,
18,18,Malva-rosa - Cavite,C CAVITE 177 (DAVANT) - VALÈNCIA,39.4830993192661,-0.32656574727779,,,0,
1801,1801,Finlàndia - Aragó,C FINLANDIA 16 ACC - VALÈNCIA,39.4714943070753,-0.358757155066797,,,0,
1802,1802,Centre de Salut Xile,C ERNESTO FERRER 10 ACC - VALÈNCIA,39.4718488143671,-0.355901837556082,,,0,
1804,1804,Joaquín Costa - Comte d'Altea,C JOAQUÍN COSTA 18 - VALÈNCIA,39.4660131444609,-0.367120235704905,,,0,
1805,1805,Mercat de Colón,C CONDE DE SALVATIERRA 27 - VALÈNCIA,39.4692622047936,-0.367812830858966,,,0,
1806,1806,Molinell (imparell) - Alboraia,C MOLINELL 1 - VALÈNCIA,39.4852032443307,-0.370042861298054,,,0,
1807,1807,Argenter Suárez - Ministre Luis Mayans,C  16 - VALÈNCIA,39.4854738952554,-0.372970051325653,,,0,
1808,1808,Ruaya (parell) - Visitació,C  42 - VALÈNCIA,39.4855588707926,-0.37708497195025,,,0,
1809,1809,Reus,C  31 - VALÈNCIA,39.485775246782,-0.380030545184226,,,0,
1810,1810,Reus - Periodista Llorente,C  16 (DAVANT) - VALÈNCIA,39.4857947111294,-0.383548805060156,,,0,
1812,1812,Joaquím Ballester (imparell) - Pare Ferris,C JOAQUÍN BALLESTER 3 - VALÈNCIA,39.48481382632,-0.385471607012303,,,0,
1813,1813,Reus,C  20 ACC - VALÈNCIA,39.4857228171045,-0.382808970292111,,,0,
1814,1814,Reus - Poeta Fernández Heredia,C  32 ACC - VALÈNCIA,39.4855361614668,-0.379385293971704,,,0,
1815,1815,Ruaya (imparell) - Visitació,C  23 - VALÈNCIA,39.4853282205457,-0.376401864126583,,,0,
1816,1816,Argenter Suárez - Miraculosa,C  11 - VALÈNCIA,39.4852690140587,-0.372874655130516,,,0,
1817,1817,Font de la Figuera - Dr. Waksman,C  21 ACC - VALÈNCIA,39.4565838804445,-0.372717361502812,,,0,
1818,1818,Sueca - Peris i Valero,C  73 - VALÈNCIA,39.4588854909499,-0.373164321319052,,,0,
1819,1819,Ausiàs March - Manuel Sanchis Guarner,AV AUSIAS MARCH 8 - VALÈNCIA,39.4556062675025,-0.375160852565727,,,0,
1820,1820,Pedreguer - Juan Ramón Jiménez,C  10 ACC - VALÈNCIA,39.4537587366118,-0.376050003272952,,,0,
1821,1821,Ausiàs March - Bernat Descoll,AV AUSIAS MARCH 48 - VALÈNCIA,39.4520407336997,-0.372732772182218,,,0,
1822,1822,Ausiàs March - Na Rovella,AV AUSIAS MARCH 70 - VALÈNCIA,39.4501378309261,-0.37132920534255,,,0,
1824,1824,Benicalap,AV JUAN XXIII 51 ACC - VALÈNCIA,39.4969113663557,-0.384781899210602,,,0,
1825,1825,Joan XXIII - Federico Alcacer Aguilar,AV JUAN XXIII 45 ACC - VALÈNCIA,39.4950216633008,-0.38409753142882,,,0,
1826,1826,Joan XXIII (imparell) - Félix del Río,AV JUAN XXIII 3 - VALÈNCIA,39.4905307674725,-0.382403361662042,,,0,
1827,1827,General Avilés - Pius XII,AV GENERAL AVILES 37 - VALÈNCIA,39.4860214714273,-0.395295841809378,,,0,
1828,1828,General Avilés - Miguel Servet (imparell),AV GENERAL AVILES 17 ACC - VALÈNCIA,39.4871834086904,-0.392637862048708,,,0,
1829,1829,General Avilés - Conchita Piquer,AV GENERAL AVILES 1 - VALÈNCIA,39.4880194996519,-0.390596836827049,,,0,
1832,1832,Equador - Salvador Tuset,AV ECUADOR  EL 93 - VALÈNCIA,39.4959670628967,-0.392857042195316,,,0,
1833,1833,Centre de Salut Assutzena,AV ECUADOR  EL S/N (JUNT.C/VERBENA) - VALÈNCIA,39.4940671148274,-0.39077154363888,,,0,
1834,1834,Poeta Serrano Clavero - Equador,C  43 (DAVANT) - VALÈNCIA,39.4935231804134,-0.388312198549084,,,0,
1835,1835,Federico Alcacer Aguilar - Poeta Serrano Clavero,C  26 (DAVANT) - VALÈNCIA,39.4949828678442,-0.386254261715849,,,0,
1836,1836,Federico Alcacer Aguilar - Joan XXIII,C  1 - VALÈNCIA,39.4952080332927,-0.384275443790221,,,0,
1837,1837,Riu Nervión - Riu Segre,C  11 - VALÈNCIA,39.4956569862382,-0.382198588322487,,,0,
1838,1838,Duc de Mandas - Constitució,C DUQUE DE MANDAS 8 - VALÈNCIA,39.4946906315288,-0.370859933741143,,,0,
1839,1839,Orriols,C DUQUE DE MANDAS 24 - VALÈNCIA,39.4928952338904,-0.368398762377474,,,0,
1840,1840,Duc de Mandas - Motilla del Palancar,C DUQUE DE MANDAS 38 - VALÈNCIA,39.4908667585931,-0.365690959208964,,,0,
1841,1841,Valladolid - Vinaròs,AV  4 - VALÈNCIA,39.4895737449562,-0.362462576477706,,,0,
1842,1842,Valladolid - Dolores Marqués,AV  5 ACC - VALÈNCIA,39.4897155793665,-0.362428868141249,,,0,
1843,1843,Duc de Mandas - Alfahuir,C DUQUE DE MANDAS 43 AC - VALÈNCIA,39.491243139762,-0.36596017474756,,,0,
1844,1844,Centre de Salut Arquitecto Tolsà,C DUQUE DE MANDAS 24 (DAVANT) - VALÈNCIA,39.492938375611,-0.368276200218055,,,0,
1845,1845,Duc de Mandas (imparell) - Arquitecto Rodríguez,C DUQUE DE MANDAS 17 - VALÈNCIA,39.4943553810402,-0.370131519086033,,,0,
1846,1846,Pere Cabanes - Camí Montcada,C PEDRO CABANES 104 - VALÈNCIA,39.4936201508334,-0.381563847333311,,,0,
1847,1847,Castellonet - Joan XXIII,C  1 (DAVANT) - VALÈNCIA,39.4931783196025,-0.383582631243469,,,0,
1848,1848,Castellonet - Alfara del Patriarca,C  19 (DAVANT) - VALÈNCIA,39.4926419609677,-0.38607511586315,,,0,
1849,1849,Equador - General Llorens,AV ECUADOR  EL 34 - VALÈNCIA,39.4932292152373,-0.388127157646692,,,0,
1850,1850,Casa de la Caritat,AV ECUADOR  EL 69 (DAVANT) - VALÈNCIA,39.4941557331068,-0.390695770718603,,,0,
1854,1854,Peris i Valero - Duc de Calàbria,AV PERIS Y VALERO 165 - VALÈNCIA,39.4612929944863,-0.365675059097017,,,0,
1858,1858,Estació del Nord - Castelló,C  2 - VALÈNCIA,39.4662855712967,-0.376804401757641,,,0,
1859,1859,Carters - Pl. Santiago Suárez,C CARTEROS 38 (DAVANT) - VALÈNCIA,39.4528168980267,-0.388417626926436,,,0,
186,186,Primat Reig - Jaume Roig,AV PRIMADO REIG 70 - VALÈNCIA,39.48407398814,-0.363380327836757,,,0,
1860,1860,Uruguai - Marques de Bellet,C URUGUAY 53 ACC - VALÈNCIA,39.4556704414617,-0.386851497291676,,,0,
1861,1861,Constitució - Reig Genovés,AV CONSTITUCION 182 - VALÈNCIA,39.493271065931,-0.373158527091306,,,0,
1862,1862,Constitució - Coronel Montesinos,AV CONSTITUCION 180 AC (DAVANT) - VALÈNCIA,39.4932863004779,-0.37336577915056,,,0,
1865,1865,Pérez Galdós - Sant Josep de la Muntanya,AV PEREZ GALDOS 131 (DAVANT) - VALÈNCIA,39.4739946866051,-0.394888965058543,,,0,
1866,1866,Arxiduc Carles - Fontanars dels Alforins,C ARCHIDUQUE CARLOS 81 (DAVANT) - VALÈNCIA,39.4625504526823,-0.39770262838718,,,0,
188,188,Primat Reig - Campus Universitari,AV PRIMADO REIG 108 - VALÈNCIA,39.4801248669712,-0.358121499589351,,,0,
1883,1883,Fra Juníper Serra -Torrent,C  64 (DAVANT) - VALÈNCIA,39.4619795106159,-0.400894795047913,,,0,
1895,1895,Catalunya - Clariano,AV CATALUÑA 21 (DAVANT) - VALÈNCIA,39.4807758907264,-0.351856625144604,,,0,
1896,1896,Tarongers - Facultat de Dret,AV NARANJOS  LOS 6 - VALÈNCIA,39.4791543419174,-0.343761166397683,,,0,
1897,1897,Tarongers - Facultat d'Economia,AV NARANJOS  LOS 10 ACC - VALÈNCIA,39.4781154647318,-0.340036009119229,,,0,
1898,1898,Tarongers - Aparcament,AV NARANJOS  LOS S/N (JUNT APARCAMENT) - VALÈNCIA,39.4769297436959,-0.335932019680532,,,0,
1900,1900,Col·legi Major,AV NARANJOS  LOS 8 (DAVANT) - VALÈNCIA,39.478523474746,-0.339907116489238,,,0,
1901,1901,Direcció General de Salut Pública,AV CATALUÑA 21 - VALÈNCIA,39.4811962697161,-0.352682709452588,,,0,
1902,1902,Catalunya - Guardia Civil,AV CATALUÑA S/N (JARDÍ) - VALÈNCIA,39.4796983513475,-0.35426978675371,,,0,
1905,1905,Tres Creus - Gaspar Aguilar,AV TRES CRUCES S/N (GASPAR AGUILAR) - VALÈNCIA,39.4503275576514,-0.395198205239946,,,0,
1918,1918,Serradora - Beteró,AV NARANJOS  LOS S/N - VALÈNCIA,39.4769517460541,-0.334360818195942,,,0,
1919,1919,Poliesportiu Natzaret - Pont de les Drassanes,C PARQUE NAZARET 12 (DAVANT) - VALÈNCIA,39.4518571324255,-0.332064564032725,,,0,
192,192,Primat Reig - Camí Vera,AV PRIMADO REIG 181 - VALÈNCIA,39.48009978059,-0.357527723941753,,,0,
1928,1928,Gaspar Aguilar - Montesa,AV GASPAR AGUILAR 74 - VALÈNCIA,39.4541709120251,-0.391998517680529,,,0,
1929,1929,Gaspar Aguilar (parell) - Dr. Tomas Sala,AV GASPAR AGUILAR 131 (DAVANT) - VALÈNCIA,39.4504237056026,-0.394520802209869,,,0,
1930,1930,Gaspar Aguilar (imparell) - Dr.Tomas Sala,AV GASPAR AGUILAR 131 - VALÈNCIA,39.4502912836736,-0.394329476958128,,,0,
1931,1931,Hospital Dr. Peset,AV GASPAR AGUILAR 99 - VALÈNCIA,39.4524489589443,-0.392899843440973,,,0,
1932,1932,Gaspar Aguilar - Costa i Borràs,AV GASPAR AGUILAR 49 - VALÈNCIA,39.455871254668,-0.390608845304387,,,0,
1936,1936,Sant Isidre,C CAMPOS CRESPO 96 - VALÈNCIA,39.4512131394364,-0.402689534919368,,,0,
1937,1937,Arquitecte Segura de Lago - Dr. Rafael Bartual,C ARQUITECTO SEGURA DE LAGO 28 - VALÈNCIA,39.4535227239941,-0.403087556473444,,,0,
1938,1938,Tres Creus - Bolívia,AV TRES CRUCES 78 DAVANT (CARRIL BUS) - VALÈNCIA,39.4563331678702,-0.401072674107676,,,0,
194,194,Primat Reig - Emili Baró,AV PRIMADO REIG 123 - VALÈNCIA,39.4844025251654,-0.363328559803099,,,0,
1940,1940,Fonteta de Sant Lluís,PL MUSICO CUESTA S/N - VALÈNCIA,39.4418357873055,-0.368757077412016,,,0,
1943,1943,Bulevard Sud- Pont,AV  S/N (CARRIL BUS) - VALÈNCIA,39.4462182060856,-0.386450693371087,,,0,
1944,1944,Bulevard Sud (parell) - Malilla,AV  S/N (CARRIL BUS) - VALÈNCIA,39.4454327701521,-0.381277922586765,,,0,
1946,1946,Hospital la Fe,AV  S/N (CARRIL BUS) - VALÈNCIA,39.4448941883684,-0.375654080152053,,,0,
1947,1947,Rotonda dels Hams,AV  S/N - VALÈNCIA,39.4459404488208,-0.370038391164938,,,0,
1949,1949,Tarongers - Facultat de Magisteri,AV NARANJOS  LOS 4 DUP - VALÈNCIA,39.4798168980305,-0.345999398338404,,,0,
1950,1950,Illes Canàries,C  1-3 (DAVANT) - VALÈNCIA,39.4631607113205,-0.349147161432639,,,0,
1951,1951,Pere II El Cerimonios - Vicente Beltrán Grimalt,C  17 ACC (DAVANT) - VALÈNCIA,39.4625588999932,-0.347192148335276,,,0,
1952,1952,Pintor Maella - Vicent Vidal (Cronista),C  24 - VALÈNCIA,39.461065399928,-0.347784618000511,,,0,
1953,1953,Pintor Maella (parell) - França,C  30 - VALÈNCIA,39.4590037533349,-0.348530873813161,,,0,
1954,1954,Pintor Maella - Luis Bolinches Compañ,C  37 (DAVANT) - VALÈNCIA,39.4575661652139,-0.348178882872875,,,0,
1955,1955,Pintor Maella - Menorca,C  37 - VALÈNCIA,39.456967456285,-0.347464578210793,,,0,
1956,1956,Pintor Maella (imparell) - França,C  33 - VALÈNCIA,39.4589784945765,-0.348246269346236,,,0,
1957,1957,Pintor Maella - Balears,C  24 (DAVANT) - VALÈNCIA,39.4610928442001,-0.347507672936997,,,0,
1958,1958,Pintor Maella - Illes Canàries,C  3 - VALÈNCIA,39.4634747869327,-0.34632806998151,,,0,
1959,1959,Blanqueria - Pare d' Òrfens,C BLANQUERIAS 14 - VALÈNCIA,39.4803751061006,-0.377759031472377,,,0,
1961,1961,Alfahuir - Germans Machado,C  49 - VALÈNCIA,39.4935788195415,-0.35917501015444,,,0,
1962,1962,Mestre Rodrigo - Canal de Navarrés,AV MAESTRO RODRIGO 88 - VALÈNCIA,39.4909206366065,-0.407025099373924,,,0,
1963,1963,Club Nàutic,CAMI CANAL 91 - VALÈNCIA,39.4279737815806,-0.334743742804803,,,0,
1964,1964,Hospital la Fe,AV  S/N (CARRIL BUS) - VALÈNCIA,39.4454530604396,-0.377274918770277,,,0,
1965,1965,Bulevard Sud (imparell) - Malilla,AV  S/N (CARRIL BUS) - VALÈNCIA,39.4458624640289,-0.381274251979535,,,0,
1968,1968,Plaça d'Espanya,GV RAMON Y CAJAL 18 - VALÈNCIA,39.4664499353059,-0.381949951317242,,,0,
197,197,Primat Reig - Sant Vicent de Paül,AV PRIMADO REIG 35 - VALÈNCIA,39.4901410625107,-0.371046675148107,,,0,
198,198,Pare Viñas - Reig Genovés,C PADRE VIÑAS 46 - VALÈNCIA,39.4921700161921,-0.371618894470013,,,0,
1980,1980,Major de Natzaret - Castell de Pop,C MAYOR DE NAZARET 128 - VALÈNCIA,39.4485387371946,-0.334608860706808,,,0,
1981,1981,Aras de los Olmos - Castell de Pop,PL  3 (DAVANT) - VALÈNCIA,39.448453671622,-0.333133194934347,,,0,
1988,1988,Estadi Ciutat de València,C  42 - VALÈNCIA,39.4910171373338,-0.362544373639601,,,0,
1989,1989,Centre Salut Alfahuir,C  47 ACC (DAVANT) - VALÈNCIA,39.4930318472498,-0.359361825003034,,,0,
199,199,Pare Viñas - Duc de Mandas,C PADRE VIÑAS 72 - VALÈNCIA,39.4941266892582,-0.370439012582946,,,0,
1990,1990,Estadi Ciutat de València,C  41 - VALÈNCIA,39.4922583108211,-0.36147547089019,,,0,
1991,1991,Alfahuir - Arquitecte Tolsà,C  27 ACC - VALÈNCIA,39.4906568886774,-0.364319944493249,,,0,
1994,1994,Bulevard Sud - Ausiàs March,AV  S/N (GASOLINERA) - VALÈNCIA,39.4455922778814,-0.36954004955266,,,0,
1999,1999,Tres Forques - Casa Misericòrdia,C TRES FORQUES 149 ACC. - VALÈNCIA,39.4631135618461,-0.408786517107761,,,0,
20,20,la Malva-rosa - Mendizábal,AV MALVARROSA 123 - VALÈNCIA,39.4839281263344,-0.327856858886883,,,0,
200,200,Pare Viñas - Daroca,C PADRE VIÑAS 92 - VALÈNCIA,39.4959070495448,-0.368858172741683,,,0,
2004,2004,Cid (via servici) - Alejandro Volta,AV CID 99 (VIA SERV.) - VALÈNCIA,39.4691476461162,-0.414760022743562,,,0,
2005,2005,Marconi - Barri de la Llum,AV MARCONI 17 ACC. - VALÈNCIA,39.467477905898,-0.414457771938061,,,0,
2006,2006,Pare Esteban Pernet  - Centre Comercial,C PADRE ESTEBAN PERNET 22 (DAVANT) - VALÈNCIA,39.4669904292663,-0.412594196372476,,,0,
2007,2007,Pare Esteban Pernet - Casa Misericòrdia,C PADRE ESTEBAN PERNET 19 ACC. - VALÈNCIA,39.4671387407878,-0.409533229981752,,,0,
2008,2008,Pare Esteban Pernet  - Centre Comercial,C PADRE ESTEBAN PERNET 22 - VALÈNCIA,39.4670681626585,-0.412865141036066,,,0,
2009,2009,Tres Creus - Music Ayllón,AV TRES CRUCES 31 - VALÈNCIA,39.4669656240938,-0.405601174471716,,,0,
2014,2014,Teatre Principal,C POETA QUEROL 14 - VALÈNCIA,39.4705607863589,-0.374245370353771,,,0,
202,202,Sant Joan Bosco - Daroca,C SAN JUAN BOSCO 87 - VALÈNCIA,39.4964637531743,-0.369998519688525,,,0,
2027,2027,Port - Trafalgar,AV PUERTO 204 - VALÈNCIA,39.4633063634811,-0.344191962053344,,,0,
2030,2030,Alboraia,AV ORXATA   DE  L' 37 (DAVANT) - ALBORAIA,39.4959179280545,-0.354563673875302,,,0,
2032,2032,Les Corts,C CONDE DE TRENOR 4-6 - VALÈNCIA,39.4787215794461,-0.37426776245376,,,0,
2041,2041,Les Arts,AUTV AUTOVIA AL SALER INST.OBRER (PAR) - VALÈNCIA,39.4567452315977,-0.356763997900918,,,0,
2042,2042,Ciutat de la Justícia,AUTV AUTOVIA AL SALER 14 - VALÈNCIA,39.4546172562023,-0.354344038007367,,,0,
2043,2043,Àgora,C  S/N - VALÈNCIA,39.4529044908803,-0.350364700252772,,,0,
2044,2044,Oceanogràfic,C  S/N - VALÈNCIA,39.4520893612206,-0.347712259531097,,,0,
2045,2045,Centre d'Investigació Príncep Felip,C  S/N - VALÈNCIA,39.4514930666344,-0.344803878720534,,,0,
2046,2046,Barraques del Figuero (parell) - Llauradors,CAMI  1 (DAVANT) - VALÈNCIA,39.4505692374624,-0.340462368644584,,,0,
2047,2047,Barraques del Figuero - Ignacio Zuloaga,CAMI  2 ACC. - VALÈNCIA,39.4496266884531,-0.336285925624675,,,0,
2048,2048,Barraques del Figuero - Cocoters,CAMI  S/N - VALÈNCIA,39.449761002554,-0.336228642321399,,,0,
2049,2049,Barraques del Figuero (imparell) - Llauradors,CAMI  1 - VALÈNCIA,39.4507303874683,-0.340384467643097,,,0,
2050,2050,Centre d'Investigació Príncep Felip,C  S/N - VALÈNCIA,39.4518931098829,-0.346238829704437,,,0,
2051,2051,Oceanogràfic,C  S/N - VALÈNCIA,39.4522317482641,-0.347419109499575,,,0,
2052,2052,Àgora,C  S/N - VALÈNCIA,39.4530291694487,-0.350199793758818,,,0,
2053,2053,Museu de les Ciències,AUTV AUTOVIA AL SALER S/N - VALÈNCIA,39.4548899189033,-0.353524296241691,,,0,
2054,2054,Les Arts,AUTV AUTOVIA AL SALER DAVANT.I.OBRER - VALÈNCIA,39.4570903327585,-0.356172747633765,,,0,
206,206,Primat Reig - Bilbao,AV PRIMADO REIG 14 - VALÈNCIA,39.4901428934252,-0.371558868673488,,,0,
2060,2060,Eivissa (parell) - Illes Canàries,C  6 - VALÈNCIA,39.4612524457373,-0.339866553785694,,,0,
2063,2063,Vinalesa - Cases de Bàrcena,CRA CASAS DE BARCENA 111 - CASES DE BÀRCENA,39.5228452563608,-0.357115605197473,,,0,
2064,2064,Terrateig - Jorge Comín,C  2-B - VALÈNCIA,39.4810903378405,-0.403549272021656,,,0,
2066,2066,Hospital 9 d'Octubre,C VALLE DE LA BALLESTERA 65 - VALÈNCIA,39.4784682132471,-0.40288817884479,,,0,
2067,2067,Vall de la Ballestera - Eduardo Soler i Pérez,C VALLE DE LA BALLESTERA 43 - VALÈNCIA,39.4785979259863,-0.399075859543517,,,0,
2069,2069,Terrateig - Poeta Rafael Alberti,C  1 - VALÈNCIA,39.4809875852458,-0.403855805553785,,,0,
207,207,Primat Reig - Almassora,AV PRIMADO REIG 44 - VALÈNCIA,39.488275060377,-0.369074126361186,,,0,
2070,2070,Ciutat Administrativa 9 d'Octubre,C NUEVE DE OCTUBRE 8 ACC - VALÈNCIA,39.4720832588597,-0.405593185669789,,,0,
2071,2071,Ciutat Administrativa 9 d'Octubre,C NUEVE DE OCTUBRE S/N CONSELLERIES - VALÈNCIA,39.4706419571779,-0.405044209950689,,,0,
2072,2072,Conselleries,C NUEVE DE OCTUBRE S/N - VALÈNCIA,39.4724511866823,-0.405338478981273,,,0,
2078,2078,Parc Central,C FILIPINAS 23 DAVANT - VALÈNCIA,39.4582505290606,-0.377000136354823,,,0,
2080,2080,Germanies - Cuba,GV GERMANIAS 45 - VALÈNCIA,39.46306499165,-0.37720097985977,,,0,
2084,2084,Vinalesa,CTRA VINALESA  DE S/N - VINALESA,39.5336710502317,-0.367444214090036,,,0,
2085,2085,Torrefiel,C CECILIO PLA 4 - VALÈNCIA,39.4985282066696,-0.377152511247034,,,0,
2093,2093,Parc de Capçalera,AV MANUEL DE FALLA 13 - VALÈNCIA,39.4749466181957,-0.404597908773366,,,0,
2094,2094,Molinell (parell) - Pintor Genaro Lahuerta,C MOLINELL 24 ACC - VALÈNCIA,39.4848320962607,-0.367053127250603,,,0,
2095,2095,Molinell (imparell) - Pintor Genaro Lahuerta,C MOLINELL 21 - VALÈNCIA,39.4849472704911,-0.366966330372719,,,0,
2096,2096,Bioparc,AV  2ACC - VALÈNCIA,39.4757872055233,-0.40588700949925,,,0,
2097,2097,Vall de la Ballestera (imparell) - Mestre Rodrigo,C VALLE DE LA BALLESTERA 37 - VALÈNCIA,39.4791554704976,-0.397790087900783,,,0,
2098,2098,Hospital 9 d'Octubre,C VALLE DE LA BALLESTERA 42 - VALÈNCIA,39.4785337327854,-0.400494426349568,,,0,
2099,2099,Nou d'Octubre,C NUEVE DE OCTUBRE S/N (ILLETA) - VALÈNCIA,39.4698751583833,-0.406090459442519,,,0,
2100,2100,Tres Creus (parell) - Campos Crespo,AV TRES CRUCES 133 CARRIL BUS (DAVANT) - VALÈNCIA,39.4527843321922,-0.399153372231357,,,0,
2105,2105,Moncada - Alfara,AV  S/N - MONCADA,39.5427829801224,-0.3877709702217,,,0,
2111,2111,Mare Nostrum - Illa de Tabarca,AV MARE NOSTRUM 14 - ALBORAIA,39.485461503963,-0.326142595438369,,,0,
2112,2112,Mare Nostrum - Mar Tirreno,AV MARE NOSTRUM 38 - ALBORAIA,39.4876523649078,-0.32578313237781,,,0,
2113,2113,Blasco Ibáñez - Mar Tirreno,C  S/N - ALBORAIA,39.4877585805911,-0.327598535820743,,,0,
2114,2114,Blasco Ibáñez - Arnau de Vilanova,C  S/N - ALBORAIA,39.4852860543656,-0.328231381052732,,,0,
2122,2122,Parc de Natzaret,CAMI PUNTA AL MAR  DE LA 89 (DAVANT) - VALÈNCIA,39.4445896703762,-0.333287212795884,,,0,
2127,2127,Filipines - Gibraltar,C FILIPINAS 2ACC - VALÈNCIA,39.4607583224159,-0.37882059643249,,,0,
2128,2128,Filipines - Puerto Rico,C FILIPINAS 11 - VALÈNCIA,39.460564354591,-0.378220753233169,,,0,
2145,2145,Isabel de Villena - Mendizábal,C ISABEL DE VILLENA S/N - VALÈNCIA,39.4834294720819,-0.325573804299274,,,0,
215,215,Primat Reig,C ALBORAYA 74 - VALÈNCIA,39.4869938150947,-0.367890669281985,,,0,
2154,2154,Parc Central,C FILIPINAS 35 ACC. - VALÈNCIA,39.4583087909124,-0.37643865482834,,,0,
2157,2157,Ausiàs March - Pianista Martínez Carrasco,AV AUSIAS MARCH 104 ACC - VALÈNCIA,39.4475535112973,-0.369580872501744,,,0,
2158,2158,La Barraca,AV  S/N VIA SERVICIO - VALÈNCIA,39.4454843436411,-0.37329212463772,,,0,
216,216,Primat Reig - Calderón de la Barca,AV PRIMADO REIG 101 (DAVANT JARDÍ) - VALÈNCIA,39.4861328574627,-0.36617120698128,,,0,
2160,2160,Burjassot - Marxalenes,AV BURJASOT S/N - VALÈNCIA,39.4863576844343,-0.386812993786783,,,0,
2161,2161,Mercat de Benimàmet,C RAFAEL TENES ESCRICH 4 - BENIMÀMET,39.4990924668261,-0.417785120056739,,,0,
2163,2163,Càmping Coll Vert,CRA RIU  DEL S/N CAMPING COLL VERT - VALÈNCIA,39.3963714721315,-0.332468901715258,,,0,
2164,2164,Càmping València Saler,CRA RIU  DEL S/N CAMPING VALENCIA - VALÈNCIA,39.3880824714607,-0.331681189794603,,,0,
2165,2165,Pinars (parell) - El Saler,AV  10 - VALÈNCIA,39.3832087903391,-0.332545427723133,,,0,
2166,2166,Gola de Puchol (I),AV  S/N - VALÈNCIA,39.357225760883,-0.320997072411478,,,0,
2167,2167,Gola de Puchol (II),AV  S/N - VALÈNCIA,39.3546441443182,-0.322313697166445,,,0,
2168,2168,Embarcador de l'Albufera (I),AV  S/N EMBARCADERO - VALÈNCIA,39.3494190208958,-0.323574353940881,,,0,
2169,2169,Pinars - Carretera del Palmar,AV  S/N CRUCE EL PALMAR - VALÈNCIA,39.3413978579423,-0.31972033827881,,,0,
2170,2170,Cementeri El Palmar,C  S/N CEMENTERIO - VALÈNCIA,39.3214406743682,-0.317918248222013,,,0,
2171,2171,Vicent Baldoví - Novelda,C  FTE. 28 - VALÈNCIA,39.3139910691236,-0.317834559386223,,,0,
2172,2172,El Palmar,C  1 - VALÈNCIA,39.3117325721849,-0.317766168565651,,,0,
2173,2173,Vicent Baldoví - Pintor Martí Girbés,C  28 - VALÈNCIA,39.3140859930186,-0.317539444095099,,,0,
2174,2174,Cementeri El Palmar,C  S/N FTE CEMENTERIO - VALÈNCIA,39.3214511216971,-0.317836067277334,,,0,
2175,2175,Carretera del Palmar - Pinars,AV  S/N CRUCE EL PALMAR - VALÈNCIA,39.34146210854,-0.319556511688814,,,0,
2176,2176,Càmping la Devesa,AV  S/N DEVESA GARDEN - VALÈNCIA,39.3229664508182,-0.309423881276252,,,0,
2177,2177,Centre de Salut El Perellonet,AV  35 - VALÈNCIA,39.3075623215474,-0.297416314537862,,,0,
2178,2178,Gavines - Entrada Trenca Perols,AV  FTE. 59 - VALÈNCIA,39.305183244045,-0.294625871644242,,,0,
2179,2179,Gavines - Entrada Filero,AV  FTE. 107 - VALÈNCIA,39.3019644299896,-0.291789451352299,,,0,
2180,2180,Gavines (parell) - Platja,AV  FTE 145 - VALÈNCIA,39.2975962975819,-0.289231544249275,,,0,
2181,2181,Gavines (parell) - Sirena,AV  FTE. 173 - VALÈNCIA,39.2938017771857,-0.287075393656616,,,0,
2182,2182,Gavines - Entrada Paridera,AV  FTE. 197 - VALÈNCIA,39.2916893387913,-0.285815046088229,,,0,
2183,2183,Gavines - Entrada Ventura,AV  FTE. 225 - VALÈNCIA,39.2884188584134,-0.283942201334745,,,0,
2184,2184,Gavines (parell) - Les Escales,AV  FTE. 249 - VALÈNCIA,39.2850770400573,-0.282038374187656,,,0,
2185,2185,Gavines - Entrada a la Baixada del Pantà,AV  FTE. 283 - VALÈNCIA,39.2817894788444,-0.280126847132607,,,0,
2186,2186,El Perelló,C  S/N SUPERMERCADO - SUECA,39.2740723022656,-0.277077244560586,,,0,
2187,2187,Gavines - Bitàcora,AV  289 - VALÈNCIA,39.2817969035904,-0.279952715155455,,,0,
2188,2188,Gavines (imparell) - Les Escales,AV  249 - VALÈNCIA,39.2852059197488,-0.281926088726908,,,0,
2189,2189,Gavines - Front Entrada Ventura,AV  225 - VALÈNCIA,39.288383230319,-0.28377364759791,,,0,
219,219,Aragó - Passeig de l'Albereda,AV ARAGÓN 3 - VALÈNCIA,39.4694833638166,-0.360204878674963,,,0,
2190,2190,Gavines - Dofins,AV  197 - VALÈNCIA,39.2917166183618,-0.285710809009115,,,0,
2191,2191,Gavines (imparell) - Sirena,AV  173 - VALÈNCIA,39.2938042142338,-0.286942305242857,,,0,
2192,2192,Gavines (imparell) - Platja,AV  145 - VALÈNCIA,39.2976232898811,-0.289152354934923,,,0,
2193,2193,Gavines - Les dunes,AV  107 - VALÈNCIA,39.3021017726668,-0.291694348962007,,,0,
2194,2194,Gavines - Botavara,AV  59 - VALÈNCIA,39.3052847030926,-0.294551923569407,,,0,
2195,2195,Càmping la Devesa,AV  S/N FTE. DEVESA GARDENS - VALÈNCIA,39.3232384748396,-0.309458582702364,,,0,
2196,2196,Embarcador de l'Albufera (II),AV  S/N FTE. EMBARCADERO - VALÈNCIA,39.3495176371371,-0.323428561064224,,,0,
2197,2197,Gola de Puchol (III),AV  S/N - VALÈNCIA,39.354545359823,-0.322280337692803,,,0,
2198,2198,Gola de Puchol (IV),AV  S/N - VALÈNCIA,39.3574936121651,-0.32086058821004,,,0,
2200,2200,Pinars (imparell) - El Saler,AV  FTE. 10 - VALÈNCIA,39.3832248753575,-0.332318639508237,,,0,
2201,2201,Càmping València Saler,CRA RIU  DEL S/N FTE. CAMPING VALENCIA - VALÈNCIA,39.3881582635407,-0.331506930691141,,,0,
2202,2202,Càmping Coll Vert,CRA RIU  DEL S/N FTE. COLL VERT - VALÈNCIA,39.3968288189445,-0.332465183832881,,,0,
2203,2203,Carrera del Riu - Montanyars,CRA RIU  DEL S/N ROTONDA - VALÈNCIA,39.4097918197475,-0.335259245840925,,,0,
2205,2205,Albufera - Pl. de la Sequiota,C  2 - VALÈNCIA,39.3105881726042,-0.317688890173973,,,0,
2206,2206,Pl. Amèrica - Navarro Reverter,AV NAVARRO REVERTER 24 - VALÈNCIA,39.4706842973011,-0.36587028914831,,,0,
2207,2207,Carrera del Riu (parell) - Rotonda Autovia,CRA RIU  DEL FTE 257 - VALÈNCIA,39.4308050207615,-0.342193798900073,,,0,
2208,2208,Carrera del Riu (imparell) - Rotonda Autovia,CRA RIU  DEL 232 - VALÈNCIA,39.4298796541752,-0.338686289411589,,,0,
2210,2210,Sant Vicent Màrtir - Ànimes,C SAN VICENTE MARTIR 63-65-67 - VALÈNCIA,39.4692875197701,-0.378918903739256,,,0,
2213,2213,Estadi de Mestalla,AV ARAGÓN 35 - VALÈNCIA,39.475384095905,-0.356501299458772,,,0,
2214,2214,Mercat Central,PL CIUDAD DE BRUJAS 2 ACC. - VALÈNCIA,39.4737795005165,-0.379623755291768,,,0,
2219,2219,Plaça de l'Ajuntament,PL AYUNTAMIENTO 21-22 - VALÈNCIA,39.4701034341508,-0.375857788948844,,,0,
2220,2220,Llotja - Mercat Central,PL AYUNTAMIENTO 9 (DAVANT) ILLETA - VALÈNCIA,39.4720855247731,-0.376862603218192,,,0,
2221,2221,Plaça de l'Ajuntament - Flors,PL AYUNTAMIENTO S/N - VALÈNCIA,39.4699467393772,-0.375948192665659,,,0,
2222,2222,Plaça de la Reina,C PAZ S/N - VALÈNCIA,39.4736105267693,-0.375816367199231,,,0,
2223,2223,Tetuan - exterior,PL TETUAN 3 - VALÈNCIA,39.4738777078894,-0.369671179509438,,,0,
2224,2224,Ignacio de Zuloaga - Castell de Pop,C  28 - VALÈNCIA,39.4475902326627,-0.335878860692095,,,0,
2227,2227,Carrer de la Pau,C PAZ 25 - VALÈNCIA,39.4731322518273,-0.372180509784446,,,0,
2229,2229,Estació del Cabanyal,C MARINO BLAS DE LEZO 12ACC - VALÈNCIA,39.4701514538669,-0.334197268295061,,,0,
223,223,Vivers,C GENERAL ELIO 2 - VALÈNCIA,39.4779124341045,-0.366873488295103,,,0,
2230,2230,Palau de Congressos,C CAMP DEL TURIA 2ACC - VALÈNCIA,39.4954966262152,-0.400991282365261,,,0,
2231,2231,Centre d'especialitats Ricard Trénor,C ALBORAYA 24-26 - VALÈNCIA,39.4818571833914,-0.370571701879191,,,0,
2232,2232,Alboraia - Jaca,C ALBORAYA 44 ACC. - VALÈNCIA,39.48413410683,-0.36937886144939,,,0,
2233,2233,Almassora - Argenter Suàrez,C ALMAZORA 56 (DAVANT) - VALÈNCIA,39.4863275129426,-0.370655554861519,,,0,
2234,2234,Almassora - Pintor Vilar,C ALMAZORA 16ACC (DAV) - VALÈNCIA,39.4828611003025,-0.372695207831715,,,0,
2235,2235,Actor Antonio Ferrandis - Centre Comercial,AV  S/N (C.C.SALER) - VALÈNCIA,39.4529864451991,-0.353155265738743,,,0,
2236,2236,Actor Antonio Ferrandis (parell) - Amado Granell Mesado,AV  4 - VALÈNCIA,39.4508671159149,-0.358131490253709,,,0,
2237,2237,Actor Antonio Ferrandis (parell) - En Corts,AV  S/N - VALÈNCIA,39.4488487367011,-0.362639134128153,,,0,
2238,2238,Actor Antonio Ferrandis (parell) - Font de St. Lluís,AV  S/N (COL.LEGI) - VALÈNCIA,39.4468750372863,-0.36781037589629,,,0,
2239,2239,Actor Antonio Ferrandis (imparell) - Font de St. Lluís,AV  S/N (FRONT COL.LEGI) - VALÈNCIA,39.446421594521,-0.367588319097856,,,0,
224,224,Vivers,C GENERAL ELIO REIXA VIVERS - VALÈNCIA,39.4773620399915,-0.367506171500229,,,0,
2240,2240,Actor Antonio Ferrandis (imparell) - En Corts,AV  S/N - VALÈNCIA,39.4485517581255,-0.362438900032179,,,0,
2241,2241,Actor Antonio Ferrandis (imparell) - Amado Granell Mesado,AV  4 (DAVANT) - VALÈNCIA,39.4504756799245,-0.357938317042115,,,0,
2242,2242,Actor Antonio Ferrandis - Centre Comercial,AV  S/N (C.C.SALER DAVANT) - VALÈNCIA,39.4526365892202,-0.35284397501355,,,0,
2243,2243,Safranar,AV TRES CRUCES S/N (CARRIL BUS) - VALÈNCIA,39.4542662383711,-0.399827179324259,,,0,
2244,2244,Tres Creus - Arxiduc Carles,AV TRES CRUCES 54 (CARRIL BUS) - VALÈNCIA,39.4572018747777,-0.402044254624484,,,0,
2245,2245,Tres Creus - Marià de Càvia,AV TRES CRUCES S/N (CARRIL BUS) - VALÈNCIA,39.454838880472,-0.40058812333966,,,0,
2246,2246,Mare Nostrum - Alboran,AV MARE NOSTRUM 31 - ALBORAIA,39.4898466126154,-0.325545452802686,,,0,
2247,2247,IES La Patacona,AV MARE NOSTRUM 56 - ALBORAIA,39.4931448608951,-0.32533220642149,,,0,
2248,2248,La Patacona,C  S/N - ALBORAIA,39.4927849573772,-0.326730201803246,,,0,
225,225,Cardenal Benlloch - Ciutat de Mula,AV CARDENAL BENLLOCH 99 - VALÈNCIA,39.4743255812756,-0.353158901334475,,,0,
2250,2250,Porta de la Mar,AV NAVARRO REVERTER 2 - VALÈNCIA,39.4716747299141,-0.36774638868108,,,0,
2251,2251,Porta de la Mar,AV NAVARRO REVERTER 1 - VALÈNCIA,39.4718216457902,-0.367740848682255,,,0,
2252,2252,Porta de la Mar,C EL JUSTICIA 2 - VALÈNCIA,39.4722704530701,-0.367775940798311,,,0,
2253,2253,Porta de la Mar,PL PORTA DE LA MAR 6 - VALÈNCIA,39.4724037484777,-0.368348243929801,,,0,
2255,2255,Porta de la Mar,PL PORTA DE LA MAR S/N (JARDÍ) - VALÈNCIA,39.4721643537106,-0.36888992688837,,,0,
2256,2256,Palau de Justícia,C PALACIO DE JUSTICIA 1 (DAVANT) - VALÈNCIA,39.4722033673308,-0.369426589105904,,,0,
2257,2257,Palau de Justícia,C PALACIO DE JUSTICIA 1 - VALÈNCIA,39.4720759629645,-0.369568178289323,,,0,
2258,2258,Colón - Porta de la Mar,C COLON 84 (DAVANT) - VALÈNCIA,39.471467244962,-0.369197122003266,,,0,
2259,2259,Colón,C COLON 60 (DAVANT) - VALÈNCIA,39.4699522936421,-0.370976646476404,,,0,
226,226,Cardenal Benlloch - Ernest Ferrer,AV CARDENAL BENLLOCH 69 - VALÈNCIA,39.4720490726842,-0.354259716999327,,,0,
2260,2260,Colón - Pascual i Genís,C COLON 13-15 - VALÈNCIA,39.4681949338456,-0.373574471524498,,,0,
2261,2261,Estació del Nord,C XATIVA 17 - VALÈNCIA,39.4675146366233,-0.37649526456498,,,0,
2262,2262,Palmaret (parell) - Montcada,AV PALMARET  DEL S/N - CARPESA,39.5176119542981,-0.386440535937527,,,0,
2263,2263,Neptú,C DOCTOR MARCOS SOPENA S/N (FGV) - VALÈNCIA,39.4631881554041,-0.325982592985554,,,0,
2266,2266,Fra Juníper Serra (parell) - Torrent,C  52 - VALÈNCIA,39.4615181576485,-0.400566455528987,,,0,
2267,2267,Fra Juníper Serra - Tres Forques,C  80 - VALÈNCIA,39.4631346769216,-0.400673593891738,,,0,
227,227,Ernest Ferrer - Polo y Peyrolón,C ERNESTO FERRER 13 - VALÈNCIA,39.4718190666461,-0.355211380245002,,,0,
2270,2270,La Cadena - Progrés,AV NARANJOS  LOS 38 ACC - VALÈNCIA,39.4750647935451,-0.32922222088291,,,0,
2271,2271,Passeig Marítim - Pavia,PSEG PASEO MARITIMO 133 ACC - VALÈNCIA,39.4742645357833,-0.324609458005723,,,0,
2273,2273,Oltà - Joaquín Benlloch,C OLTA 40 - VALÈNCIA,39.4525467922622,-0.376667512153109,,,0,
2277,2277,Xàtiva,C XATIVA SN (INSTITUT) - VALÈNCIA,39.4678832658107,-0.378030019093771,,,0,
2278,2278,Marqués de Sotelo,AV MARQUÉS DE SOTELO 9 - VALÈNCIA,39.4680756080828,-0.376882491122208,,,0,
2279,2279,Marqués de Sotelo,AV MARQUÉS DE SOTELO 1-3 - VALÈNCIA,39.4688888194688,-0.376792913396861,,,0,
2280,2280,Barques - Pl. de l'Ajuntament,C BARCAS 4 - VALÈNCIA,39.4703063372384,-0.375493824971844,,,0,
2281,2281,Pintor Sorolla,C PINTOR SOROLLA 26 - VALÈNCIA,39.47137892583,-0.371312773606654,,,0,
2282,2282,Av. de l'Oest (imparell) - Sant Agustí,AV BARON DE CARCER 47 - VALÈNCIA,39.4694913651751,-0.379557808421802,,,0,
2284,2284,Estació Joaquín Sorolla,C BAILEN S/N (ESTACIO) - VALÈNCIA,39.4608300871382,-0.381584272667507,,,0,
2287,2287,Editor Manuel Aguilar - Guillem Sorolla,C EDITOR MANUEL AGUILAR 5 - VALÈNCIA,39.4727122872595,-0.380412359234667,,,0,
2288,2288,Mercat Central - Beata,AV BARON DE CARCER 24 - VALÈNCIA,39.4725251547249,-0.379849640646178,,,0,
2289,2289,Av. de l'Oest - Roger de Flor,AV BARON DE CARCER 26 - VALÈNCIA,39.472115435818,-0.379850896852475,,,0,
229,229,Cardenal Benlloch (imparell) - Port,AV CARDENAL BENLLOCH 5 - VALÈNCIA,39.4676621634247,-0.356414789779297,,,0,
2290,2290,Biblioteca Pública,AV BARON DE CARCER 30 - VALÈNCIA,39.4714327830747,-0.379805662429441,,,0,
2291,2291,Amado Granell Mesado (parell) - Lluís Oliag,C GENERAL URRUTIA 16 - VALÈNCIA,39.459727893825,-0.365698780817644,,,0,
2292,2292,Amado Granell Mesado (parell) - la Plata,C GENERAL URRUTIA 44 - VALÈNCIA,39.4571534616501,-0.363860929697948,,,0,
2293,2293,Amado Granell Mesado (parell) - Arabista Ambrosio Huici,C GENERAL URRUTIA 60 - VALÈNCIA,39.4555282073408,-0.362674635044183,,,0,
2294,2294,Amado Granell Mesado (parell) - Antonio Sacramento,C GENERAL URRUTIA SN - VALÈNCIA,39.4526260223534,-0.360597484877624,,,0,
2295,2295,Amado Granell Mesado (parell) - Antonio Ferrandis,C GENERAL URRUTIA SN - VALÈNCIA,39.4506488424953,-0.359201429650965,,,0,
2296,2296,Amado Granell Mesado (imparell) - Antonio Ferrandis,C GENERAL URRUTIA SN - VALÈNCIA,39.4513984390502,-0.359339877849915,,,0,
2297,2297,Amado Granell Mesado (imparell) - Antonio Sacramento,C GENERAL URRUTIA SN - VALÈNCIA,39.4527414324853,-0.360244381799178,,,0,
2298,2298,Amado Granell Mesado (imparell) - Arabista Ambrosio Huici,C GENERAL URRUTIA 61 - VALÈNCIA,39.4555951954253,-0.362376050017919,,,0,
2299,2299,Amado Granell Mesado (imparell) - la Plata,C GENERAL URRUTIA 49 - VALÈNCIA,39.4573047501009,-0.363664898170611,,,0,
230,230,Eduard Boscà - Passeig de l¿Albereda,C EDUARDO BOSCA 32 - VALÈNCIA,39.4646311326793,-0.357835277976313,,,0,
2300,2300,Amado Granell Mesado (imparell) - Lluís Oliag,C GENERAL URRUTIA 13 - VALÈNCIA,39.4597982901948,-0.365188583925959,,,0,
2301,2301,Félix del Río - Camí de Montcada,C DOCTOR MARCO MERENCIANO 1 - VALÈNCIA,39.4919877625367,-0.379474779988193,,,0,
2303,2303,Andreu Alfaro - Louis Braille,C FRANCISCO MOROTE GREUS 2 (DAVANT) - VALÈNCIA,39.4975125080324,-0.394939847432149,,,0,
2304,2304,Democràcia - Baladre,C CASTAN TOBEÑAS 18 - VALÈNCIA,39.4739891661836,-0.397398718708205,,,0,
2305,2305,Democràcia - Velázquez,C CASTAN TOBEÑAS 48 - VALÈNCIA,39.473437560125,-0.400440537936996,,,0,
2306,2306,Democràcia - Conselleries,C CASTAN TOBEÑAS 80 - VALÈNCIA,39.4727159109523,-0.402808998212317,,,0,
2307,2307,General Avilés (illeta) - Pius XII,AV PIO XII S/N (ILLETA) - VALÈNCIA,39.485590016251,-0.395882030930969,,,0,
2309,2309,Estació del Nord - Bailén,C BAILEN SN (ESTACIÓ) - VALÈNCIA,39.4672454746952,-0.37771202491586,,,0,
231,231,Eduard Boscà - Balears,C EDUARDO BOSCA 31 - VALÈNCIA,39.4642979556666,-0.357728453872576,,,0,
2312,2312,Estació del Nord - Sant Pau,C SAN PABLO REIXA INSTITUT - VALÈNCIA,39.4683935660864,-0.377826639201647,,,0,
2313,2313,Institut Lluís Vives,AV MARQUÉS DE SOTELO 8 - VALÈNCIA,39.4686304809678,-0.377100545234117,,,0,
2314,2314,Plaça de l'Ajuntament - Periodista Azzati,C PERIODISTA AZZATI 3 - VALÈNCIA,39.4694438003387,-0.377626895003965,,,0,
2315,2315,Roger de Llòria - Colón,C ROGER DE LAURIA 30 - VALÈNCIA,39.4691325172816,-0.37259575210491,,,0,
2316,2316,Marqués de Dosaigües,C MARQUÉS DE DOS AGUAS 4 - VALÈNCIA,39.4733175356647,-0.37432572485763,,,0,
2317,2317,Pascual i Genís - Roger de Lloria,C PASCUAL Y GENIS 20 - VALÈNCIA,39.4684621876739,-0.373945958041783,,,0,
2318,2318,MuVIM,C QUEVEDO 2 - VALÈNCIA,39.4700687310031,-0.380306651545128,,,0,
2319,2319,Teatre Flumen,C PADRE FERRIS 14 - VALÈNCIA,39.4829122526208,-0.384558976458938,,,0,
2320,2320,Hospital Dr. Peset - Primer de Maig,AV  76 (DAVANT) - VALÈNCIA,39.4503812797987,-0.393953276136129,,,0,
2324,2324,França - Camí Fondo del Grao,AV FRANCIA 71 (DAVANT) - VALÈNCIA,39.4578439341447,-0.341810669459763,,,0,
2325,2325,Escultor Salzillo - Lluís Fenollet,C ESCULTOR SALZILLO 7 (DAVANT) - VALÈNCIA,39.4658156899064,-0.409122114867955,,,0,
2330,2330,Alacant - Castelló,C ALICANTE FTE 3 ACC - VALÈNCIA,39.4661432654956,-0.376955148896419,,,0,
2337,2337,País Valencià - Colón,AV PAIS VALENCIÀ 83 - SEDAVÍ,39.427867606211,-0.384976133700114,,,0,
2338,2338,País Valencià - València,AV PAIS VALENCIÀ 49 - SEDAVÍ,39.4264267913073,-0.381416740834313,,,0,
2339,2339,País Valencià - Salvador Giner,AV PAIS VALENCIÀ 47 (DAVANT) - SEDAVÍ,39.4263584046877,-0.380919262735567,,,0,
2340,2340,País Valencià - Pintor Sorolla,AV PAIS VALENCIÀ 83 (DAVANT) - SEDAVÍ,39.4279662039217,-0.384770111428925,,,0,
2341,2341,Passeig Marítim - Mediterrània,C PAVIA 9 (DAVANT) - VALÈNCIA,39.4683073234502,-0.324575984264181,,,0,
2342,2342,Passeig Marítim - Pescadors,C PAVIA 35 (DAVANT) - VALÈNCIA,39.4704818680401,-0.324631566694064,,,0,
2343,2343,Vicent Marco Miranda - Lluís Alcanyís,C  87 (DAVANT) - VALÈNCIA,39.4479766023679,-0.373789845349266,,,0,
2345,2345,Carretera del Pi - Entrada Roseldo,CTRA  S/N - VALÈNCIA,39.426416115773,-0.361898417209131,,,0,
2350,2350,José Roca Coll - Músic Gomis,C  S/N - VALÈNCIA,39.4592915233256,-0.398589538797159,,,0,
2359,2359,Estació del Nord - Ermita,C BAILEN 7 - VALÈNCIA,39.4646230763032,-0.378876480460537,,,0,
2372,2372,Plaça d'Espanya,C PINTOR BENEDITO S/N - VALÈNCIA,39.4654816611245,-0.381938482217378,,,0,
2373,2373,Carlos Pau Español - Camí del Canal,C  2 ACC - VALÈNCIA,39.4428618821619,-0.335470422465781,,,0,
2376,2376,Dr. Ruíz i Comes - Tremolar,C DOCTOR RUIZ  Y COMES S/N - CASTELLAR-OLIVERAL,39.424208500009,-0.362144732962278,,,0,
2378,2378,Canal - Punta al Mar,CAMI CANAL S/N - VALÈNCIA,39.4447236375679,-0.33578934856584,,,0,
238,238,Dr. Peset Aleixandre - Joan XXIII,AV DOCTOR PESET ALEIXANDRE 94 - VALÈNCIA,39.4901787356997,-0.382982678243955,,,0,
2380,2380,Safranar,C  13 - VALÈNCIA,39.4547638965628,-0.398543502176447,,,0,
2381,2381,Campos Crespo - Fra Juníper Serra,C CAMPOS CRESPO 36 (DAVANT) - VALÈNCIA,39.4561555977386,-0.396258258929596,,,0,
2382,2382,Pius XI - Xera,C CAMPOS CRESPO 25 - VALÈNCIA,39.4580774252503,-0.394166135827216,,,0,
2383,2383,Humanista Mariner - Fontanars,C HUMANISTA MARINER 20 - VALÈNCIA,39.4598997984668,-0.394530916330077,,,0,
2384,2384,Humanista Mariner - José Roca Coll,C HUMANISTA MARINER 39 (DAVANT) - VALÈNCIA,39.4583507839421,-0.396472836469272,,,0,
2385,2385,Canonge Tàrrega - Campaners,C  S/N - VALÈNCIA,39.456246719674,-0.398661518485774,,,0,
2387,2387,La Punta,AV JESUS MORANTE BORRAS 218 - VALÈNCIA,39.4416602592765,-0.343888972941366,,,0,
2388,2388,Bulevar Sud - Vicent Miquel Carceller,AV  32 (VIA SERV) - VALÈNCIA,39.4460100617056,-0.377829273437586,,,0,
2389,2389,Llevant UE - Federico Alcácer Aguilar,AV  20 - VALÈNCIA,39.4957978909691,-0.388619799435242,,,0,
2390,2390,Arnau de Vilanova - Dr. Mollà,C  2 - VINALESA,39.535182985927,-0.369793375254184,,,0,
2391,2391,Pl. d'Ausiàs March,PL  S/N - VINALESA,39.5356877254889,-0.36858101632531,,,0,
24,24,la Malva-rosa - Sant Rafael,AV MALVARROSA 57 - VALÈNCIA,39.4791178706405,-0.328148424417542,,,0,
2403,2403,Pl. de l'Ajuntament - Ateneu,PL AYUNTAMIENTO S/N ATENEU - VALÈNCIA,39.4703878740697,-0.376165832140552,,,0,
2404,2404,Tetuan - Interior,PL TETUAN 2 - VALÈNCIA,39.4739889172615,-0.369883942702999,,,0,
242,242,Dr. Peset Aleixandre - Guardacostes,AV DOCTOR PESET ALEIXANDRE 105 - VALÈNCIA,39.489982119072,-0.382922281988981,,,0,
243,243,Dr. Peset Aleixandre - Camí de Montcada,AV DOCTOR PESET ALEIXANDRE 71 - VALÈNCIA,39.4908842504982,-0.378675193193896,,,0,
244,244,Dr. Peset Aleixandre - Constitució,AV DOCTOR PESET ALEIXANDRE 5 - VALÈNCIA,39.4917539363177,-0.374852673587838,,,0,
246,246,Constitució - Duc de Mandas,AV CONSTITUCION 216 - VALÈNCIA,39.4945802367798,-0.371912742652673,,,0,
247,247,Constitució - Sant Joan de la Penya,AV CONSTITUCION 256 - VALÈNCIA,39.4965349987106,-0.370815523574556,,,0,
248,248,Sant Miquel dels Reis,AV CONSTITUCION 282 - VALÈNCIA,39.4988762228547,-0.370230037474906,,,0,
249,249,Constitució (parell) - Campaneta,AV CONSTITUCION 332 - VALÈNCIA,39.5023432421637,-0.368529530158829,,,0,
25,25,la Malva-rosa - Sant Joan de Deu,AV MALVARROSA 39 - VALÈNCIA,39.4773785567054,-0.328164470755603,,,0,
250,250,Constitució (parell) - Tavernes Blanques,AV CONSTITUCION 360 - VALÈNCIA,39.5042012494195,-0.367802074539604,,,0,
257,257,Constitució (imparell) - Tavernes Blanques,AV CONSTITUCION 355 - VALÈNCIA,39.5046899110475,-0.367689162915694,,,0,
258,258,Constitució (imparell) - Campaneta,AV CONSTITUCION 311 - VALÈNCIA,39.5024273224836,-0.368618305899143,,,0,
259,259,Sant Miquel dels Reis,AV CONSTITUCION 273 - VALÈNCIA,39.4991164832089,-0.370300351675494,,,0,
26,26,la Malva-rosa - Riu Tajo,AV MALVARROSA 21 - VALÈNCIA,39.4762489259382,-0.327852604462577,,,0,
268,268,Joan XXIII (parell) - Félix del Río,AV JUAN XXIII 10 - VALÈNCIA,39.4911243446449,-0.382275392250746,,,0,
272,272,Sant Doménec Savio - Mestre Marçal,C SANTO DOMINGO SAVIO 13 - VALÈNCIA,39.49347910688,-0.3745337248707,,,0,
273,273,Sant Doménec Savio - Constitució,C SANTO DOMINGO SAVIO 5 - VALÈNCIA,39.4923970729293,-0.374108750868711,,,0,
279,279,Camí de Montcada - Dr. Peset Aleixandre,CAMI MONCADA 50 - VALÈNCIA,39.4914665388124,-0.378576434401455,,,0,
280,280,Camí de Montcada (parell) - Cambrils,CAMI MONCADA 92 - VALÈNCIA,39.4946989262545,-0.380150744172589,,,0,
281,281,Camí de Montcada (parell) - Alemany,CAMI MONCADA 121 (DAVANT) - VALÈNCIA,39.4964924934437,-0.380957225924509,,,0,
282,282,Camí de Montcada - Entrada Camí Carpesa,CAMI MONCADA 188 - VALÈNCIA,39.5028756838405,-0.382736712609644,,,0,
283,283,Camí de Montcada - Poble Nou,CAMI MONCADA 218 - VALÈNCIA,39.5050613468602,-0.383659145487335,,,0,
284,284,Camí de Montcada - Casa d'Àngel,CAMI MONCADA 260 - VALÈNCIA,39.5068479200279,-0.383969213008933,,,0,
285,285,Cami de Montcada - Alqueria Ballester,CAMI MONCADA 328 - VALÈNCIA,39.5102697460665,-0.385830347817562,,,0,
286,286,Camí de Montcada (parell) - Matador,CAMI MONCADA 382 (ENTRADA BORBOTÓ) - VALÈNCIA,39.5156417668202,-0.386861045628569,,,0,
290,290,Carpesa,AV PALMARET  DEL 103 - CARPESA,39.5150989944334,-0.377314375282021,,,0,
291,291,Camí de Montcada (parell) - Alqueria Senent,CTRA BENIFARAIG A MONCADA S/N - VALÈNCIA,39.5215682605098,-0.3864692038372,,,0,
292,292,Benifaraig a Montcada - Casa Silvestre,CAMI MONCADA S/N (SILVESTRE) - VALÈNCIA,39.5252535607532,-0.386045293720732,,,0,
296,296,Benifaraig a Montcada - Boquera,CTRA BENIFARAIG A MONCADA S/N - VALÈNCIA,39.5252665665779,-0.386220935513193,,,0,
297,297,Camí de Montcada (imparell) - Alqueria Senent,CAMI MONCADA S/N - VALÈNCIA,39.5215866856923,-0.386546191407783,,,0,
299,299,Camí de Montcada (imparell) - Matador,CAMI MONCADA A BORBOTÓ - VALÈNCIA,39.5153363653794,-0.387011439624852,,,0,
300,300,Camí de Montcada - Alqueria Paella,CAMI MONCADA 313 - VALÈNCIA,39.5100714274909,-0.385823154203284,,,0,
301,301,Camí de Montcada - Ctra. Daniel,CAMI MONCADA 247 - VALÈNCIA,39.5064397797121,-0.3841061253272,,,0,
302,302,Camí de Montcada - Poble Nou,CAMI MONCADA 217 - VALÈNCIA,39.5050306453214,-0.383804383949644,,,0,
303,303,Camí de Montcada - Ctra. Carpesa,CAMI MONCADA 181 - VALÈNCIA,39.5027314210508,-0.382646491759294,,,0,
304,304,Camí de Montcada (imparell) - Alemany,CAMI MONCADA 123 - VALÈNCIA,39.4965900349369,-0.381096469092531,,,0,
305,305,Camí de Montcada (imparell) - Cambrils,CAMI MONCADA 96 (DAVANT) - VALÈNCIA,39.4948874378421,-0.380323088072963,,,0,
306,306,Camí de Montcada - Félix del Río,CAMI MONCADA 61 - VALÈNCIA,39.4916014829083,-0.379046942276169,,,0,
307,307,Burjassot - Mondúver,AV BURJASOT 130 - VALÈNCIA,39.4894889827749,-0.390290573718958,,,0,
308,308,Burjassot - Pintor Matarana,AV BURJASOT 186 - VALÈNCIA,39.4923934413606,-0.393309733486137,,,0,
309,309,Burjassot - Salvador Tuset,AV BURJASOT 230 - VALÈNCIA,39.4945797161941,-0.395602625008267,,,0,
310,310,Parc de Benicalap,C LUIS BRAILLE 2 - VALÈNCIA,39.4956788495717,-0.396210688076546,,,0,
311,311,Sant Josep Artesà - Luis Martí Alegre,AV SAN JOSE ARTESANO 16 - VALÈNCIA,39.498311092828,-0.393799797044859,,,0,
314,314,Parc de Benicalap,C LUIS BRAILLE 2 (DAVANT) - VALÈNCIA,39.4957989514648,-0.396287726409745,,,0,
319,319,Campanar - Dr. Nicasi Benlloch,AV CAMPANAR 1 - VALÈNCIA,39.4881180429019,-0.389585918090123,,,0,
321,321,Sagunt - Sant Guillem,C SAGUNTO 58 ACC - VALÈNCIA,39.4843760423183,-0.37474075654858,,,0,
322,322,Sagunt,C SAGUNTO 110 - VALÈNCIA,39.4862298114925,-0.374656100199403,,,0,
323,323,Sagunt - Pare Urbà,C SAGUNTO 168 - VALÈNCIA,39.488828294947,-0.375014656884001,,,0,
324,324,Sagunt - Don Bosco,C SAGUNTO 192 - VALÈNCIA,39.4915759202562,-0.373954328449413,,,0,
325,325,Constitució - Dr. Peset Aleixandre,AV CONSTITUCION 127 - VALÈNCIA,39.4915297427444,-0.374452701527751,,,0,
326,326,Constitució - Xest,AV CONSTITUCION 85 - VALÈNCIA,39.4893127367104,-0.375997607341844,,,0,
327,327,Constitució - Sarrión,AV CONSTITUCION 39 - VALÈNCIA,39.4873588347037,-0.37747336688025,,,0,
328,328,Constitució - Màlaga,AV CONSTITUCION 27 - VALÈNCIA,39.4852254916721,-0.378759338394848,,,0,
329,329,Constitució - Pla de la Saïdia,AV CONSTITUCION ILLETA SAÏDIA - VALÈNCIA,39.4830881385493,-0.378839957149983,,,0,
330,330,Burjassot - Màlaga,AV BURJASOT 26 - VALÈNCIA,39.4838126900607,-0.38317806170215,,,0,
331,331,Bombas Gens,AV BURJASOT 56 - VALÈNCIA,39.4854851644539,-0.385629896806072,,,0,
333,333,Burjassot - Dr. Peset Aleixandre,AV BURJASOT 114 - VALÈNCIA,39.4883347008232,-0.389068909104045,,,0,
337,337,Dr. Moliner - Arts Gràfiques,C DOCTOR MOLINER 10 - VALÈNCIA,39.4763283487967,-0.362724456128831,,,0,
338,338,Museu de Belles Arts,C SAN PIO V 3 - VALÈNCIA,39.4790068409563,-0.371316840799254,,,0,
339,339,la Plata - Sapadors,AV PLATA  DE  LA 59 - VALÈNCIA,39.455844260226,-0.365744312537836,,,0,
341,341,Pont de Fusta,C CRONISTA RIVELLES 1 FGV - VALÈNCIA,39.4809077783248,-0.374011090585294,,,0,
342,342,Guadalaviar - Sagunt,C GUADALAVIAR 2 - VALÈNCIA,39.4820062215132,-0.375496178910859,,,0,
343,343,El Pla de la Saïdia - Constitució,C LLANO DE LA ZAIDIA 2 - VALÈNCIA,39.482923947496,-0.377766785858606,,,0,
344,344,Escola Oficial d'Idiomes,C LLANO DE LA ZAIDIA 18 - VALÈNCIA,39.4829825458207,-0.381205307438426,,,0,
345,345,Menéndez Pidal (parell) - Pare Ferrís,AV MENENDEZ PIDAL 2 - VALÈNCIA,39.4817463248773,-0.384438073394578,,,0,
346,346,Estació d'autobusos,AV MENENDEZ PIDAL 14 - VALÈNCIA,39.4802119166763,-0.387708753023243,,,0,
347,347,Menéndez Pidal - Pasarel·la,AV MENENDEZ PIDAL PETRIL RIU - VALÈNCIA,39.4789945183909,-0.390078514725198,,,0,
348,348,Estació d'autobusos,AV MENENDEZ PIDAL 14 (DAVANT RIU) - VALÈNCIA,39.4800126010431,-0.387566273819784,,,0,
349,349,Menéndez Pidal (imparell) - Pare Ferrís,AV MENENDEZ PIDAL 1 (DAVANT) - VALÈNCIA,39.4814591670723,-0.384358717285071,,,0,
350,350,Escola Oficial d'Idiomes,C LLANO DE LA ZAIDIA 18 (DAVANT) - VALÈNCIA,39.4826568305127,-0.381429057736737,,,0,
351,351,El Pla de la Saïdia (riu) - Constitució,C LLANO DE LA ZAIDIA 13 (DAVANT) - VALÈNCIA,39.4828192232705,-0.379532035705368,,,0,
352,352,Pont dels Serrans,C GUADALAVIAR 2 (DAVANT) - VALÈNCIA,39.4816431979624,-0.375359517041833,,,0,
353,353,Dr. Nicasi Benlloch - Alcubles,C DOCTOR NICASIO BENLLOCH 3 - VALÈNCIA,39.4872368238234,-0.388599753061258,,,0,
354,354,Pare Ferrís - Joaquím Ballester,C PADRE FERRIS 41 - VALÈNCIA,39.4848981472299,-0.386399006861196,,,0,
358,358,Joaquím Ballester (parell) - Ricardo Micó,C JOAQUÍN BALLESTER DAVANT JARDÍ - VALÈNCIA,39.4829902981451,-0.389696170774287,,,0,
359,359,Joaquím Ballester - Campanar,C JOAQUÍN BALLESTER 45 (LA FE) - VALÈNCIA,39.4820019292801,-0.391925534108419,,,0,
361,361,Joaquím Ballester (imparell) - Ricardo Micó,C JOAQUÍN BALLESTER JARDÍ - VALÈNCIA,39.4826947768048,-0.389747252466391,,,0,
364,364,Campanar - Ricardo Micó,AV CAMPANAR 19 - VALÈNCIA,39.485891749838,-0.390687983708808,,,0,
367,367,Campanar - Joan Pau II,AV CAMPANAR 102 - VALÈNCIA,39.4800346095211,-0.393795322435325,,,0,
368,368,Mercat de Campanar,AV CAMPANAR 128 - VALÈNCIA,39.4777758025003,-0.3947695586624,,,0,
370,370,Campanar - Pius XII,AV CAMPANAR 27 - VALÈNCIA,39.4804209999212,-0.393231940658787,,,0,
371,371,Pius XII - Centre Comercial,AV PIO XII 2 - VALÈNCIA,39.4794638845161,-0.391272820099737,,,0,
372,372,Pius XII - Campanar,AV PIO XII 28 - VALÈNCIA,39.4822335926101,-0.393283866583805,,,0,
373,373,Campanar,AV PIO XII 34 - VALÈNCIA,39.4843958929519,-0.394693342660504,,,0,
375,375,Corts Valencianes - Davant Escoles Professionals Sant Josep,AV CORTS VALENCIANES 6 (ACCÉS) - VALÈNCIA,39.4869896418091,-0.396419927508537,,,0,
376,376,Beniferri,AV CORTS VALENCIANES 22 - VALÈNCIA,39.491046210747,-0.399523852635244,,,0,
381,381,Mossén Miguel Tarin (imparell) - Carretera de Paterna,C PARROCO MIGUEL TARIN 49 - BENIMÀMET,39.4971353472995,-0.416053209434069,,,0,
382,382,Mossén Miguel Tarin (imparell) - Miquel Agraït,C PARROCO MIGUEL TARIN 25 - BENIMÀMET,39.4987609255891,-0.416348549551151,,,0,
383,383,Dr. Soriano Benlloch - Rafael Tenes Escrich,C DOCTOR SORIANO BENLLOCH 2 - BENIMÀMET,39.499555465644,-0.417328295253443,,,0,
384,384,Benimàmet,PL LUIS CANO 6 (DAVANT) - BENIMÀMET,39.5014562066501,-0.418754805718082,,,0,
385,385,Campament - Felipe Valls,C CAMPAMENTO  DEL 8 - BENIMÀMET,39.5026391402319,-0.420339797210343,,,0,
386,386,Campament (parell) - Joaquín Marín,C CAMPAMENTO  DEL 55 - BENIMÀMET,39.5015928484444,-0.422766651715763,,,0,
387,387,Polvorí - Sinarques,C SENDA DEL POLVORIN DAVANT HOTEL - BENIMÀMET,39.5009917887019,-0.425226636757672,,,0,
388,388,Fira València,AV FERIAS  DE LAS 2 (jto.Hotel) - BENIMÀMET,39.5031607923425,-0.426394584326153,,,0,
389,389,Alginet - Algemesí,C ALGINET 4 - PATERNA (Terramelar),39.5071592901223,-0.429120708177994,,,0,
390,390,Terramelar,C ALMASSORA 1 - PATERNA (Terramelar),39.5081935519292,-0.427930701579969,,,0,
391,391,Alginet - Alcossebre,C ALGINET 11 - PATERNA (Terramelar),39.507213006284,-0.429217044835186,,,0,
392,392,Fira València,AV FERIAS  DE LAS PORTA PRINCIPAL - BENIMÀMET,39.5036795488464,-0.426283614129016,,,0,
393,393,Velòdrom Lluís Puig,C SENDA DEL POLVORIN 24 (DAVANT) - BENIMÀMET,39.5016887769404,-0.426272562159195,,,0,
394,394,Polvorí - Campament,C SENDA DEL POLVORIN HOTEL - BENIMÀMET,39.5006583037763,-0.425126396629041,,,0,
395,395,Campament (imparell) - Joaquín Marín,C CAMPAMENTO  DEL 53 - BENIMÀMET,39.5014869984147,-0.422694116538429,,,0,
396,396,Pintor Garnelo - Campament,C PINTOR GARNELO 3 - BENIMÀMET,39.5024199988926,-0.420093429559035,,,0,
397,397,Felipe Valls - Lluís Cano,C FELIPE VALLS 59 - BENIMÀMET,39.5014278992805,-0.419123774270939,,,0,
399,399,Mossén Miguel Tarin (parell) - Miquel Agraït,C PARROCO MIGUEL TARIN 16 - BENIMÀMET,39.4987709182356,-0.416448705666868,,,0,
400,400,Mossén Miguel Tarin (parell) - Carretera de Paterna,C PARROCO MIGUEL TARIN 38 - BENIMÀMET,39.4976400937663,-0.416241604711788,,,0,
403,403,Corts Valencianes - l'Alt Maestrat,AV CORTS VALENCIANES S/N (CARRIL BUS) (IMPAR) - VALÈNCIA,39.4939509730405,-0.402256466167871,,,0,
405,405,Corts Valencianes - Escoles Professionals Sant Josep,AV CORTS VALENCIANES 1 - VALÈNCIA,39.4866030397716,-0.397110452483448,,,0,
407,407,Pius XII - Bisbe Soler,AV PIO XII 17 - VALÈNCIA,39.4816932317956,-0.393394950910117,,,0,
409,409,Pius XII - Centre Comercial,AV PIO XII 1 - VALÈNCIA,39.4792681185215,-0.391689592430132,,,0,
415,415,Vall de la Ballestera (parell) - Mestre Rodrigo,C VALLE DE LA BALLESTERA 34 - VALÈNCIA,39.4793215964303,-0.397938691704623,,,0,
419,419,Manuel de Falla - Mestre Rodrigo,AV MANUEL DE FALLA 1 - VALÈNCIA,39.4763229119517,-0.397808724985949,,,0,
420,420,Manuel de Falla - Professor López Ibor,AV MANUEL DE FALLA S/N - VALÈNCIA,39.4756383618217,-0.401163512750796,,,0,
422,422,Mestre Rodrigo - Manuel de Falla,AV MAESTRO RODRIGO 13 - VALÈNCIA,39.4774361850222,-0.397794209665532,,,0,
425,425,Pérez Galdós - Democràcia,AV PEREZ GALDOS 137 - VALÈNCIA,39.474462965306,-0.395598369967376,,,0,
426,426,Pérez Galdós - Torres Torres,AV PEREZ GALDOS 117 - VALÈNCIA,39.4719959015663,-0.393667587604178,,,0,
427,427,Pérez Galdós - Olimpia Arozena Torres,AV PEREZ GALDOS 95 - VALÈNCIA,39.4700610332439,-0.392451654296947,,,0,
428,428,Llorca - Pérez Galdós,C LORCA 4 - VALÈNCIA,39.4684817206635,-0.392074924871653,,,0,
432,432,Pérez Galdós - Lladró i Mallí,AV PEREZ GALDOS 5 - VALÈNCIA,39.4629148628449,-0.387345224314826,,,0,
434,434,Giorgeta - Ctra. D'Escrivà,AV GIORGETA JARDÍ - VALÈNCIA,39.4579973218313,-0.383933788415887,,,0,
436,436,Jesús,AV GIORGETA 39 - VALÈNCIA,39.4590821713962,-0.384248701646942,,,0,
439,439,Pérez Galdós - Conca,AV PEREZ GALDOS 30 - VALÈNCIA,39.4649257658515,-0.388386491027218,,,0,
44,44,Pintor Ferrandis - Progrés,C PINTOR FERRANDIS 31 - VALÈNCIA,39.472042948553,-0.328732184005983,,,0,
441,441,Pérez Galdós - Calixt III,AV PEREZ GALDOS 88 - VALÈNCIA,39.4696215736458,-0.391763554158584,,,0,
442,442,Pérez Galdós - Mestre Guerrero,AV PEREZ GALDOS 120 - VALÈNCIA,39.4725005564508,-0.393799744459673,,,0,
443,443,Pérez Galdós - Dr. Zamenhof,AV PEREZ GALDOS 128 - VALÈNCIA,39.4746221652878,-0.395314820804446,,,0,
445,445,Joan XXIII - Periodista Gil Sumbiela,AV JUAN XXIII 29 - VALÈNCIA,39.4926481642341,-0.383197687828188,,,0,
45,45,Pintor Ferrandis - Josep Benlliure,C PINTOR FERRANDIS 30 - VALÈNCIA,39.4719483849532,-0.32957534251095,,,0,
46,46,Pintor Ferrandis - Àngels,C PINTOR FERRANDIS 4 - VALÈNCIA,39.4722399166611,-0.331709606575092,,,0,
47,47,Església dels Àngels - Pintor Ferrandis,PL IGLESIA DE LOS ANGELES 2 (DAVANT JARDÍ) - VALÈNCIA,39.4724016992534,-0.331789809595337,,,0,
472,472,Petxina - Racó d'Ademús,PSEG PECHINA 71 - VALÈNCIA,39.4735235533848,-0.402464006484809,,,0,
473,473,Brasil - Velàzquez,C BRASIL 71 - VALÈNCIA,39.4724620275998,-0.400645820203978,,,0,
474,474,Brasil - Francisco Moreno Usedo,C BRASIL 37 - VALÈNCIA,39.4714748009764,-0.397484687720796,,,0,
475,475,Brasil - Artur Piera,C BRASIL 3 - VALÈNCIA,39.4707190766107,-0.395186642183424,,,0,
481,481,Linares - Pérez Galdós,C LINARES 4 - VALÈNCIA,39.4689809584152,-0.392337302322339,,,0,
482,482,Parc de l'Oest,AV CID S/N (JUNT L TOTANA) - VALÈNCIA,39.4683797171828,-0.396038981691011,,,0,
483,483,Cid - Burgos,AV CID 76 - VALÈNCIA,39.4690998924255,-0.400003313104901,,,0,
484,484,Cid - Passatge Vidal,AV CID 108 - VALÈNCIA,39.469609704839,-0.403209868769612,,,0,
485,485,Nou d'Octubre,AV CID S/N (JARDÍ 9 D'OCTUBRE) - VALÈNCIA,39.4701331756608,-0.40557850644601,,,0,
486,486,Cid - Particular,AV CID 152 (SEAT) - VALÈNCIA,39.4698697074143,-0.411555925924974,,,0,
487,487,Cid - Pere Maria Orts,AV CID 160 - VALÈNCIA,39.4697198656993,-0.414158499190646,,,0,
488,488,Avinguda del Cid,AV CID 180 - VALÈNCIA,39.4697106523212,-0.416107632674127,,,0,
493,493,Joan Baptista Comes - Antonio Machado,C JUAN BAUTISTA COMES 8 - VALÈNCIA,39.4672044650839,-0.415069108918724,,,0,
495,495,Cid - Marconi,AV CID 85 - VALÈNCIA,39.4692333295021,-0.413211063637504,,,0,
496,496,Cid - Hospital,AV CID 65 - VALÈNCIA,39.4695769250395,-0.409895525753019,,,0,
498,498,Mercat de Castilla,AV TRES CRUCES 14 (CARRIL BUS) - VALÈNCIA,39.4654598058487,-0.406169071703697,,,0,
50,50,Reina - Columbretes,C REINA (C.) 97 - VALÈNCIA,39.4681148899622,-0.328805872289456,,,0,
500,500,La Fontsanta,C ESCULTOR SALZILLO 10 - VALÈNCIA,39.4657442828398,-0.409652622775433,,,0,
501,501,Colònia Esp. de Mèxic - Casa de la Misericòrdia,PL COLONIA ESPAÑOLA DE MEJICO 5 (IMPAR)(HORARI COL.LEGI) - VALÈNCIA,39.464595167139,-0.409185383741169,,,0,
504,504,Hospital General,AV TRES CRUCES 7 - VALÈNCIA,39.4686658634878,-0.405497101739138,,,0,
506,506,Cid - Josep Maestre,AV CID 51 - VALÈNCIA,39.4689652746076,-0.402520484813055,,,0,
507,507,Central de Policia Local de València,AV CID 41 - VALÈNCIA,39.468554843062,-0.399923315251556,,,0,
508,508,Parc de l'Oest,AV CID JARDÍ ENGUERA - VALÈNCIA,39.4679386055932,-0.395633082046838,,,0,
509,509,Arxiduc Carles - Xiva,C ARCHIDUQUE CARLOS 8 - VALÈNCIA,39.4664461845905,-0.393419264735194,,,0,
510,510,Arxiduc Carles - Enguera,C ARCHIDUQUE CARLOS 41 (DAVANT) - VALÈNCIA,39.4650835135609,-0.394917684173654,,,0,
511,511,Tres Forques (parell) - Arxiduc Carles,C TRES FORQUES 77 (DAVANT) - VALÈNCIA,39.4640549325598,-0.396898690671018,,,0,
512,512,Tres Forques - Santa Cruz de Tenerife,C TRES FORQUES 82 - VALÈNCIA,39.463951327131,-0.399663946544995,,,0,
513,513,Tres Forques - Josep Maestre,C TRES FORQUES 98 - VALÈNCIA,39.4638221291606,-0.40285386539718,,,0,
514,514,Tres Creus (carril bus) - Llombai,AV TRES CRUCES 49 (ACCÉS CARRIL BUS) - VALÈNCIA,39.4641033553456,-0.405447962220848,,,0,
515,515,Tres Creus (carril bus) - Músic Ayllón,AV TRES CRUCES 31 (CARRIL BUS) - VALÈNCIA,39.467034949866,-0.405782496612433,,,0,
524,524,José Andreu Alabarta - Mariano de Cavia,C JOSE ANDREU ALABARTA 35 - VALÈNCIA,39.4526313389751,-0.403865773657805,,,0,
525,525,José Andreu Alabarta - Professor Àngel Lacalle,C JOSE ANDREU ALABARTA 5 - VALÈNCIA,39.4546949187202,-0.405067064562335,,,0,
529,529,Tres Forques - Emili Lluch,C TRES FORQUES 125 - VALÈNCIA,39.46354828989,-0.402833820874046,,,0,
530,530,Tres Forques - Mare de Déu de la Cabeça,C TRES FORQUES 99 (ACCÉS) - VALÈNCIA,39.4636811743018,-0.399846936389513,,,0,
531,531,Tres Forques (imparell) - Arxiduc Carles,C TRES FORQUES 77 - VALÈNCIA,39.4637962047577,-0.396888496605069,,,0,
532,532,Tres Forques - Churat i Saurí,C TRES FORQUES 33 - VALÈNCIA,39.4640020461496,-0.391919932643863,,,0,
533,533,Tres Forques - Pérez Galdós,C TRES FORQUES 3 - VALÈNCIA,39.4641121347566,-0.389069324699396,,,0,
534,534,Tres Forques - Xiva,C TRES FORQUES 10 - VALÈNCIA,39.4643613033751,-0.389492526193788,,,0,
535,535,Tres Forques - Mestre Bellver,C TRES FORQUES 46 - VALÈNCIA,39.4642062944259,-0.393359484622258,,,0,
538,538,Arxiduc Carles (parell) - Fra Juníper Serra,C ARCHIDUQUE CARLOS 68 - VALÈNCIA,39.4610283974807,-0.399453651296483,,,0,
539,539,Arxiduc Carles - Puebla de Valverde,C ARCHIDUQUE CARLOS 82 - VALÈNCIA,39.4595090455033,-0.401147514670415,,,0,
54,54,Mercat del Cabanyal,C MARINO SIRERA 16 - VALÈNCIA,39.4683155639301,-0.332411838447342,,,0,
540,540,Camí nou de Picanya - Tres Creus,CAMI PICAñA (CNO. NUEVO) 2 - VALÈNCIA,39.4575217029356,-0.403365919739936,,,0,
543,543,Arxiduc Carles - Músic Gomis,C ARCHIDUQUE CARLOS 133 - VALÈNCIA,39.4588010249428,-0.401318457412878,,,0,
544,544,Arxiduc Carles - Fra Juníper Serra,C ARCHIDUQUE CARLOS 111 - VALÈNCIA,39.4608209402913,-0.399211622279233,,,0,
545,545,Arquitecte Segura de Lago - Prof. Àngel Lacalle,C ARQUITECTO SEGURA DE LAGO 6 - VALÈNCIA,39.4554296195163,-0.404278468504332,,,0,
546,546,Hospital Verge del Consol,C JESUS 94 - VALÈNCIA,39.4618463645468,-0.387347720705481,,,0,
548,548,Mercat de Jesús,C JESUS 12 (PLAÇA) - VALÈNCIA,39.4602407839053,-0.388743434567587,,,0,
549,549,Centre de Salut Pare Jofré,C BEATO NICOLAS FACTOR 20 - VALÈNCIA,39.4605765460836,-0.389915435568156,,,0,
550,550,Humanista Mariner - Beat Nicolau Factor,C HUMANISTA MARINER 4 - VALÈNCIA,39.4617392964405,-0.392713598478212,,,0,
552,552,Pius XI - Manuel Simó,C PIO XI 3 - VALÈNCIA,39.4597667626146,-0.392194594453393,,,0,
554,554,Conca - Mossén Fenollar,C CUENCA 97 - VALÈNCIA,39.4617279895571,-0.390308898641553,,,0,
555,555,Conca - Pérez Galdós,C CUENCA 71 - VALÈNCIA,39.4637744707719,-0.388570740701086,,,0,
557,557,Gaspar Aguilar - Jesús,AV GASPAR AGUILAR 2 - VALÈNCIA,39.4592982582055,-0.388602516101185,,,0,
559,559,Patraix,AV GASPAR AGUILAR 30 - VALÈNCIA,39.4568522474351,-0.390244255838539,,,0,
563,563,Crematori Municipal,AV GASPAR AGUILAR 159 (DAVANT) - VALÈNCIA,39.4491103094952,-0.395486865552626,,,0,
564,564,Cementeri,PL SANTO DOMINGO DE GUZMAN S/N - VALÈNCIA,39.4480624228113,-0.39622330211013,,,0,
571,571,Gaspar Aguilar - Calvo Acacio,AV GASPAR AGUILAR 73 - VALÈNCIA,39.4541199005773,-0.391738222934936,,,0,
575,575,Sant Vicent Màrtir - Dolores Alcaide,C SAN VICENTE MARTIR 238 - VALÈNCIA,39.4557917643846,-0.38405670282583,,,0,
576,576,Sant Vicent Màrtir - Joaquín Navarro,C SAN VICENTE MARTIR 278 - VALÈNCIA,39.452791151367,-0.384697693796789,,,0,
577,577,Creu Coberta,C SAN VICENTE MARTIR 340 - VALÈNCIA,39.4483683499815,-0.385797520498023,,,0,
578,578,Sant Vicent Màrtir - Enginyer Josep Sirera,C SAN VICENTE MARTIR 412 - VALÈNCIA,39.4455890995391,-0.386778791521961,,,0,
579,579,Sant Vicent Màrtir (parell) - Arquebisbe Olaechea,C SAN VICENTE MARTIR 438 - VALÈNCIA,39.4436866027414,-0.387533408381272,,,0,
58,58,Manuel Soto Enginyer - Estació,AV INGENIERO MANUEL SOTO 11 - VALÈNCIA,39.4583147562177,-0.332269642698398,,,0,
580,580,José Soto Micó - Alcalà de Xivert,C JOSE SOTO MICO 22 - VALÈNCIA,39.4401143554556,-0.388946083863906,,,0,
581,581,Real de Madrid - Carretera d'Alba,AV REAL DE MADRID 26 - VALÈNCIA,39.4348175362977,-0.391038455778689,,,0,
582,582,Real de Madrid - Algar del Palància,AV REAL DE MADRID 52 - VALÈNCIA,39.4332955399778,-0.391611558430562,,,0,
583,583,Real de Madrid (parell) - Eduardo Dato,AV REAL DE MADRID 100 - VALÈNCIA,39.4299291653946,-0.392912081096625,,,0,
585,585,Forn d'Alcedo,C GUADALQUIVIR 32 - FORN D'ALCEDO,39.4323424229681,-0.376405222112662,,,0,
586,586,La Torre,C MANUEL IRANZO 1 - VALÈNCIA,39.4273842540065,-0.39347150451302,,,0,
588,588,Real de Madrid - Hellín,AV REAL DE MADRID 39 - VALÈNCIA,39.4339585659278,-0.391121435464334,,,0,
589,589,Real de Madrid - Concepción Arenal,AV REAL DE MADRID 15 - VALÈNCIA,39.435078062393,-0.390723339839403,,,0,
59,59,Manuel Soto Enginyer - Comandància Marina,AV INGENIERO MANUEL SOTO 13 - VALÈNCIA,39.4563530865492,-0.330844763158803,,,0,
590,590,José Soto Micó - Síndic Mojolí,C JOSE SOTO MICO 41 - VALÈNCIA,39.4401096660946,-0.3886944296519,,,0,
591,591,Sant Vicent Màrtir (imparell) - Arquebisbe Olaechea,C SAN VICENTE MARTIR 371 - VALÈNCIA,39.4442334308922,-0.387111395558059,,,0,
592,592,Creu Coberta,C SAN VICENTE MARTIR 315-317 - VALÈNCIA,39.4473939370632,-0.385840022811245,,,0,
593,593,Sant Vicent Màrtir - Altamira,C SAN VICENTE MARTIR 289 - VALÈNCIA,39.4491463902909,-0.385278929085996,,,0,
594,594,Sant Vicent Màrtir - Fernández de Mesa,C SAN VICENTE MARTIR 300 (DAVANT) - VALÈNCIA,39.4513367180313,-0.384786460653266,,,0,
595,595,Sant Vicent Màrtir - Millars,C SAN VICENTE MARTIR 211 - VALÈNCIA,39.4566892014181,-0.383577067719683,,,0,
596,596,Peris i Valero - Ausiàs March,AV PERIS Y VALERO 36 - VALÈNCIA,39.4571929628849,-0.374775965735912,,,0,
598,598,Peris i Valero - Sapadors,AV PERIS Y VALERO 84 - VALÈNCIA,39.4588885840599,-0.37074858937132,,,0,
599,599,Peris i Valero - Bisbe Jaume Pérez,AV PERIS Y VALERO 136 - VALÈNCIA,39.4601690071889,-0.36770375265814,,,0,
60,60,Pont de les Drassanes,AV INGENIERO MANUEL SOTO 18 - VALÈNCIA,39.4544939369236,-0.330657854275212,,,0,
600,600,Peris i Valero - Pere Aleixandre,AV PERIS Y VALERO 156 - VALÈNCIA,39.4610678496227,-0.365600072517457,,,0,
602,602,Mestre Racional - Regne de València,C MESTRE RACIONAL 5 - VALÈNCIA,39.4634365419589,-0.363291354255888,,,0,
603,603,Maties Perelló - Lluís de Santàngel,C MATIAS PERELLO 41 - VALÈNCIA,39.4621431739503,-0.366451834807528,,,0,
604,604,Maties Perelló - Mestre Aguilar,C MATIAS PERELLO 7 - VALÈNCIA,39.4609245508909,-0.369335141777047,,,0,
605,605,Els Centelles - Sueca,C CENTELLES  LOS 32 - VALÈNCIA,39.4594523559695,-0.372790654833803,,,0,
606,606,Parc Central,C FILIPINAS BARDISSA CENTRAL - VALÈNCIA,39.4579046370029,-0.376472152355841,,,0,
609,609,Malilla - Pianista Empar Iturbi,CTRA MALILLA 6 - VALÈNCIA,39.4543088022125,-0.378292949815748,,,0,
61,61,Major de Natzaret - Vilanova i Piera,C MAYOR DE NAZARET 48 - VALÈNCIA,39.4519381532703,-0.333682547450835,,,0,
610,610,Malilla - Oltà,CTRA MALILLA 26 - VALÈNCIA,39.4525498505055,-0.378887001997807,,,0,
611,611,Malilla (parell) - Illa Cabrera,CTRA MALILLA 78 - VALÈNCIA,39.4488484787728,-0.379702198675715,,,0,
612,612,Malilla (parell) - Illa Formentera,CTRA MALILLA 100 - VALÈNCIA,39.4469366937907,-0.38020400869972,,,0,
62,62,Mercat de Natzaret,C MAYOR DE NAZARET S/N (DAVANT MERCAT) - VALÈNCIA,39.4502372993598,-0.334156177600896,,,0,
620,620,Joaquín Benlloch - Illa Cabrera,C INGENIERO JOAQUÍN BENLLOCH 73 - VALÈNCIA,39.4497506908498,-0.373773480638261,,,0,
621,621,Joaquín Benlloch - Oltà,C INGENIERO JOAQUÍN BENLLOCH 41 - VALÈNCIA,39.4523157470381,-0.375567517824768,,,0,
622,622,Centre de Salut Eng. Joaquín Benlloch,C INGENIERO JOAQUÍN BENLLOCH 21 - VALÈNCIA,39.4540045562324,-0.376751817542889,,,0,
623,623,Pianista Empar Iturbi - Ausiàs March,C PIANISTA AMPARO ITURBI 80 - VALÈNCIA,39.4549946484097,-0.375109719227051,,,0,
625,625,Fonteta Sant Lluís - Lleó XIII,CRA FUENTE DE SAN LUIS 18 - VALÈNCIA,39.4576066805056,-0.371777966857607,,,0,
626,626,Fonteta Sant Lluís - Dr. Waksman,CRA FUENTE DE SAN LUIS 40 - VALÈNCIA,39.4557145214286,-0.371584221687694,,,0,
627,627,Fonteta Sant Lluís - Bèrnia,CRA FUENTE DE SAN LUIS 70 - VALÈNCIA,39.453963127543,-0.371621656551193,,,0,
628,628,Fonteta Sant Lluís - Algímia d'Alfara,CRA FUENTE DE SAN LUIS 104 - VALÈNCIA,39.4516154811432,-0.370664383886955,,,0,
630,630,Fonteta Sant Lluís - Ebenista Caselles,CRA FUENTE DE SAN LUIS 114 ACC - VALÈNCIA,39.4500005940366,-0.369641003774072,,,0,
631,631,Fonteta Sant Lluís - Riu Sec,CRA FUENTE DE SAN LUIS 142 - VALÈNCIA,39.4462747077251,-0.367126636592415,,,0,
632,632,Gravador Jordán - Alabau i Arce,C GRABADOR JORDAN 46 - VALÈNCIA,39.4443342383753,-0.367726147569357,,,0,
634,634,Gravador Jordán - Escultor Pastor,C GRABADOR JORDAN 46 (DAVANT) - VALÈNCIA,39.4443193489156,-0.367516612090021,,,0,
635,635,Gravador Jordán - Riu Sec,C GRABADOR JORDAN 11 - VALÈNCIA,39.4463611497159,-0.366935458136633,,,0,
636,636,Fonteta Sant Lluís (imparell) - Àngel Villena,CRA FUENTE DE SAN LUIS 136 (DAVANT) - VALÈNCIA,39.4485830243352,-0.368403032871916,,,0,
637,637,Fonteta Sant Lluís - Germans Maristes,CRA FUENTE DE SAN LUIS 139 - VALÈNCIA,39.4502420671755,-0.369565014919326,,,0,
638,638,Ausiàs March - Algímia d'Alfara,AV AUSIAS MARCH 47 - VALÈNCIA,39.4516065510481,-0.371655235334838,,,0,
639,639,Bèrnia - Ausiàs March,C BERNIA 13 - VALÈNCIA,39.4540336050584,-0.372705483517133,,,0,
64,64,Vall de la Ballestera - Campanar,C VALLE DE LA BALLESTERA 1 - VALÈNCIA,39.4809129058255,-0.393545512562571,,,0,
640,640,Puigcampana - Fonteta Sant Lluís,C PUIGCAMPANA 23 - VALÈNCIA,39.4549500541175,-0.371225828714434,,,0,
643,643,Sapadors,C ZAPADORES 63 - VALÈNCIA,39.4556146458651,-0.366847191555584,,,0,
644,644,Sapadors - Dos d'Abril,C ZAPADORES 33 - VALÈNCIA,39.4573638393002,-0.367982639077084,,,0,
645,645,Sapadors - Sant Gregori,C ZAPADORES 5 - VALÈNCIA,39.4590906101488,-0.368892946781444,,,0,
649,649,Germans Maristes - José Durán Martínez,AV HERMANOS MARISTAS 20 (DAVANT JARDÍ) - VALÈNCIA,39.4536212066048,-0.3631506651493,,,0,
650,650,Poliesportiu Fta. Sant Lluís,AV HERMANOS MARISTAS 16 (DAVANT) - VALÈNCIA,39.4525005226254,-0.365797019360105,,,0,
652,652,Germans Maristes (parell) - Fonteta Sant Lluís,AV HERMANOS MARISTAS 8 - VALÈNCIA,39.4510339753851,-0.368655116130378,,,0,
653,653,Poliesportiu Fta. Sant Lluís,AV HERMANOS MARISTAS 16 - VALÈNCIA,39.4519407445998,-0.366444686734494,,,0,
654,654,Germans Maristes - Institut Jordi de Sant Jordi,AV HERMANOS MARISTAS 20 - VALÈNCIA,39.4534130507853,-0.36291408374454,,,0,
657,657,Font d'en Corts - Levantina Alegre,C FUENTE EN CORTS 54 - VALÈNCIA,39.4486792603345,-0.360719758285048,,,0,
658,658,Font d'en Corts (parell) - Roig de lagarda,C FUENTE EN CORTS 88 - VALÈNCIA,39.4455925511344,-0.358257389213013,,,0,
659,659,Font d'en Corts (parell) - Matador d'en Corts,C FUENTE EN CORTS 161 (DAVANT) - VALÈNCIA,39.4427156051399,-0.356017950216451,,,0,
66,66,Punta al Mar - Camí Canal,CAMI PUNTA AL MAR  DE LA 75 (DAVANT) - VALÈNCIA,39.4448367980039,-0.335218905247501,,,0,
660,660,Mercavalència,C FUENTE EN CORTS 188 - VALÈNCIA,39.4370356304038,-0.355211162307539,,,0,
663,663,el Tremolar - Crist del Refugi,CAMI TREMOLAR 23 - CASTELLAR-OLIVERAL,39.4236218704056,-0.361143761096541,,,0,
664,664,Crist del Refugi - del Remolí,C CRISTO DEL REFUGIO 65 - CASTELLAR-OLIVERAL,39.4247035032928,-0.36393654922029,,,0,
665,665,Crist del Refugi - Ctra. Del Pí,C CRISTO DEL REFUGIO 5 - CASTELLAR-OLIVERAL,39.4262845106527,-0.364130905396277,,,0,
666,666,Mare de Déu de Lepant (parell) - Esc. F. Siurana,PL VIRGEN DE LEPANTO 24 - CASTELLAR-OLIVERAL,39.4296473207613,-0.36342193974924,,,0,
668,668,Principal - Camí del Ribàs,C  11 - VALÈNCIA,39.4326614390323,-0.362442245558111,,,0,
669,669,Ribàs (parell) - Ador,CAMI RIBAS 14 - CASTELLAR-OLIVERAL,39.4323393974866,-0.360760834934724,,,0,
671,671,Mercavalència,C FUENTE EN CORTS 188 (DAVANT) - VALÈNCIA,39.4371521046739,-0.354785943721827,,,0,
672,672,Font d'en Corts (imparell) - Matador d'en Corts,C FUENTE EN CORTS 151 - VALÈNCIA,39.4433602965635,-0.356750865178998,,,0,
673,673,Font d'en Corts (imparell) - Roig de lagarda,C FUENTE EN CORTS 99 - VALÈNCIA,39.4456698996096,-0.358223650325865,,,0,
674,674,Font d'en Corts - Casa de Roc,C FUENTE EN CORTS 57 - VALÈNCIA,39.4487173893627,-0.360671524855918,,,0,
679,679,Escultor J. Capuz (imparell) - la Plata,C ESCULTOR JOSE CAPUZ 49 - VALÈNCIA,39.4583456517435,-0.360270269764979,,,0,
680,680,Escultor J. Capuz (imparell) - Pere Aleixandre,C ESCULTOR JOSE CAPUZ 31 - VALÈNCIA,39.4598673723758,-0.361295796523133,,,0,
681,681,Centre d'especialitats Montolivet,C ESCULTOR JOSE CAPUZ 11 - VALÈNCIA,39.461528870162,-0.36238309876677,,,0,
682,682,Centre d'especialitats Montolivet,C ESCULTOR JOSE CAPUZ 12 - VALÈNCIA,39.4615192832823,-0.362602151073349,,,0,
683,683,Escultor J. Capuz (parell) - Pere Aleixandre,C ESCULTOR JOSE CAPUZ 30 - VALÈNCIA,39.4603468977458,-0.361809523556634,,,0,
684,684,Escultor J. Capuz (parell) - la Plata,C ESCULTOR JOSE CAPUZ 44 - VALÈNCIA,39.4585575283993,-0.360617296564414,,,0,
685,685,la Plata - Amado Granell Mesado,AV PLATA  DE  LA 77 - VALÈNCIA,39.4570684169455,-0.362844285757925,,,0,
686,686,Plaça de Cánovas,GV MARQUÉS DEL TURIA BARDISSA CÁNOVAS (IMPAR) - VALÈNCIA,39.4684889820791,-0.365818585247515,,,0,
687,687,Marqués del Túria - Jorge Juan,GV MARQUÉS DEL TURIA 59 - VALÈNCIA,39.4677856655967,-0.36760685528708,,,0,
688,688,Marqués del Túria - Hernán Cortés,GV MARQUÉS DEL TURIA 35 - VALÈNCIA,39.466443336118,-0.370766130399185,,,0,
689,689,Marqués del Túria - Russafa,GV MARQUÉS DEL TURIA 7 - VALÈNCIA,39.4653815700205,-0.373282810143423,,,0,
690,690,Germanies - Castelló,GV GERMANIAS 16 - VALÈNCIA,39.4645799086147,-0.375009838901019,,,0,
691,691,Plaça d'Espanya,C ERMITA 1 (RAMON I CAJAL) - VALÈNCIA,39.4652698833683,-0.381037275163772,,,0,
692,692,Ramón i Cajal (parell) - Jesús,GV RAMON Y CAJAL 28 - VALÈNCIA,39.4676328231156,-0.382753248357711,,,0,
693,693,Àngel Guimerà,GV FERNANDO EL CATOLICO 10 - VALÈNCIA,39.4702574377357,-0.384685106034224,,,0,
694,694,Ferran el Catòlic - Juan de Mena,GV FERNANDO EL CATOLICO 36 - VALÈNCIA,39.4723219248154,-0.386131870321955,,,0,
695,695,Jardí Botànic,GV FERNANDO EL CATOLICO 70 - VALÈNCIA,39.4749431917486,-0.388011432321113,,,0,
696,696,Túria,GV FERNANDO EL CATOLICO 85 - VALÈNCIA,39.4769930064741,-0.390097844344688,,,0,
697,697,Jardí Botànic,GV FERNANDO EL CATOLICO 67 - VALÈNCIA,39.4753485409919,-0.388891252938956,,,0,
698,698,Quart - Ferran el Catòlic,C QUART 114 - VALÈNCIA,39.4749375797485,-0.389320809943828,,,0,
7,7,Edifici del Rellotge,C DOCTOR J.J. DOMINE PORTA PPAL. - VALÈNCIA,39.4603570216242,-0.332496102599653,,,0,
70,70,Poliesportiu Natzaret - Moraira,C PARQUE NAZARET 58 (DAVANT) - VALÈNCIA,39.450559096323,-0.332428775347471,,,0,
700,700,Hospital General,AV CID S/N - VALÈNCIA,39.4695115999732,-0.405752756315858,,,0,
701,701,Ferran el Catòlic - Gabriel Miró,GV FERNANDO EL CATOLICO 37 - VALÈNCIA,39.4730322722068,-0.387292966860663,,,0,
702,702,Àngel Guimerà,GV FERNANDO EL CATOLICO 9 - VALÈNCIA,39.4699906191284,-0.385102850862242,,,0,
703,703,Àngel Guimerà,GV FERNANDO EL CATOLICO BARDISSA CENTRAL - VALÈNCIA,39.4704850970108,-0.385139389286049,,,0,
704,704,Prefectura superior de Policia,GV RAMON Y CAJAL 61 - VALÈNCIA,39.4684637910791,-0.384010196547569,,,0,
705,705,Ramón i Cajal (imparell) - Jesús,GV RAMON Y CAJAL 39 - VALÈNCIA,39.4670923145696,-0.383029365774069,,,0,
708,708,Germanies - Sevilla,GV GERMANIAS 13 - VALÈNCIA,39.4643562777194,-0.374659438143841,,,0,
709,709,Marqués del Túria - Gregori Maians,GV MARQUÉS DEL TURIA 6 - VALÈNCIA,39.4653035439852,-0.372258226553989,,,0,
710,710,Marqués del Túria - Mestre Gozalbo,GV MARQUÉS DEL TURIA 40 - VALÈNCIA,39.4664682423692,-0.369502829963201,,,0,
711,711,Marqués del Túria - Joaquín Costa,GV MARQUÉS DEL TURIA 62 - VALÈNCIA,39.4673291924904,-0.367448269782039,,,0,
712,712,Plaça de Cánovas,GV MARQUÉS DEL TURIA BARDISSA CÁNOVAS (PAR) - VALÈNCIA,39.4681453556307,-0.365597822719057,,,0,
716,716,Cadis - Dénia,C CADIZ 12 - VALÈNCIA,39.4636151302011,-0.374898621427865,,,0,
717,717,Cadis - Puerto Rico,C CADIZ 44 - VALÈNCIA,39.4618666328331,-0.373688591927682,,,0,
718,718,Cadis - dels Centelles,C CADIZ 92 - VALÈNCIA,39.4592662754114,-0.371806728613468,,,0,
720,720,Mercat de Russafa,C MAESTRO AGUILAR 3 - VALÈNCIA,39.461731464222,-0.370447151118067,,,0,
721,721,Sant Valero,PL DOCTOR LANDETE 1 - VALÈNCIA,39.4632365561976,-0.371780156660901,,,0,
722,722,Regne de València - Russafa,AV REGNE DE VALENCIA 4 - VALÈNCIA,39.4646765608914,-0.372852045561803,,,0,
723,723,Regne de València - Lluís Santàngel,AV REGNE DE VALENCIA 42 - VALÈNCIA,39.4638643735735,-0.369186695516932,,,0,
724,724,Regne de València - Peris i Valero,AV REGNE DE VALENCIA 80 - VALÈNCIA,39.462727400179,-0.363917346788393,,,0,
725,725,Regne de València - Mestre Gozalbo,AV REGNE DE VALENCIA 43 - VALÈNCIA,39.4638449987948,-0.367661492782142,,,0,
726,726,Regne de València - Gregori Mayans,AV REGNE DE VALENCIA 11 - VALÈNCIA,39.4647965901315,-0.372009941373435,,,0,
728,728,Pintor Salvador Abril - Mestre J. Serrano,C PINTOR SALVADOR ABRIL 14 - VALÈNCIA,39.4637570940509,-0.370936993300269,,,0,
731,731,Joaquín Costa - Regne de València,C JOAQUÍN COSTA 56 - VALÈNCIA,39.4635982758534,-0.365483662716404,,,0,
732,732,Ciscar - Mestre Racional,C CISCAR 61 - VALÈNCIA,39.463507845518,-0.363825425178166,,,0,
733,733,Ciscar - Borriana,C CISCAR 31 - VALÈNCIA,39.4654562935347,-0.36512523420558,,,0,
734,734,Ciscar - Comte d'Altea,C CISCAR 11 - VALÈNCIA,39.4671769425697,-0.366316628583855,,,0,
737,737,Sant Vicent Màrtir - Giorgeta,C SAN VICENTE MARTIR 188 (DAVANT) - VALÈNCIA,39.459668628059,-0.382910763716226,,,0,
738,738,Centre de Salut Gil i Morte,C SAN VICENTE MARTIR 153 - VALÈNCIA,39.4616106259644,-0.38229867964375,,,0,
739,739,Jesús - Sant Francesc de Borja,C JESUS 44 - VALÈNCIA,39.4661373193564,-0.383676029917177,,,0,
741,741,Jesús - Pintor Segrelles,C JESUS 75 (DAVANT) - VALÈNCIA,39.463825488985,-0.385570027036376,,,0,
742,742,Albacete - Mestre Sosa,C ALBACETE 41 - VALÈNCIA,39.4613980962056,-0.385407735777545,,,0,
744,744,Conca - Bisbe Amigó,C CUENCA 41 - VALÈNCIA,39.4660040021298,-0.386660339807849,,,0,
745,745,Conca - Alzira,C CUENCA 15 - VALÈNCIA,39.4683161360885,-0.384772278221513,,,0,
746,746,Àngel Guimerà - Bon Ordre,C ANGEL GUIMERA 42 (ACCÉS) - VALÈNCIA,39.4698612186365,-0.38810425231431,,,0,
748,748,Centre de Salut Joan Llorens,C MAESTRO GUERRERO 1 (ACC) - VALÈNCIA,39.4738097902197,-0.391854653112827,,,0,
749,749,Quart - Terol,C QUART 134 - VALÈNCIA,39.4746119790155,-0.391280271298311,,,0,
750,750,Sant Josep de la Muntanya - Pérez Galdós,AV SAN JOSE DE LA MONTAÑA 22 - VALÈNCIA,39.474452565976,-0.394184062469915,,,0,
758,758,Aiora - Mariano Ribera,C AYORA 31 - VALÈNCIA,39.4646727285584,-0.393327845933399,,,0,
759,759,Aiora - Xiva,C AYORA 9 - VALÈNCIA,39.4664476870446,-0.391978013338596,,,0,
760,760,Sant Josep de Calassanç - Alberic,C SAN JOSE DE CALASANZ 11 - VALÈNCIA,39.4664228201868,-0.387617515883706,,,0,
761,761,Sant Francesc de Borja - Jesús,C SAN FRANCISCO DE BORJA 5 - VALÈNCIA,39.4660025180376,-0.385132121593007,,,0,
764,764,Plaça Amèrica,PL AMERICA 1 (DAVANT RIU) - VALÈNCIA,39.4692896317602,-0.364137699037735,,,0,
771,771,Torres dels Serrans,TOR TORRES DE SERRANS ILLETA - VALÈNCIA,39.4790937661799,-0.375251024443013,,,0,
773,773,Plaça del Temple,PL POETA LLORENTE JARDÍ - VALÈNCIA,39.4769790267533,-0.371227801646622,,,0,
777,777,Amèrica - Marqués del Túria,PL AMERICA 2 - VALÈNCIA,39.4695269970747,-0.364879031563141,,,0,
792,792,Encarnació - Guillem de Castro,PL ENCARNACION 2 - VALÈNCIA,39.4739136894072,-0.383807025530758,,,0,
793,793,Torres de Quart,C GUILLEM DE CASTRO 78 - VALÈNCIA,39.4750142052907,-0.383948311243703,,,0,
795,795,La Bene,C GUILLEM DE CASTRO 106 - VALÈNCIA,39.4778409203628,-0.383694072145502,,,0,
796,796,IVAM,C GUILLEM DE CASTRO IVAM - VALÈNCIA,39.4800230787468,-0.382931254647782,,,0,
803,803,Quart - Guillem de Castro,C QUART 66 - VALÈNCIA,39.4757205895023,-0.384671315447786,,,0,
814,814,Jesús - Pare Jofré,C JESUS 14 - VALÈNCIA,39.4681722957592,-0.381809697552418,,,0,
815,815,Plaça Espanya,PL ESPAÑA 3 - VALÈNCIA,39.4659663294484,-0.381215664960033,,,0,
816,816,Sant Vicent Màrtir - Espanya,C SAN VICENTE MARTIR 91 - VALÈNCIA,39.4666269052492,-0.380890077369976,,,0,
823,823,Fèlix Pizcueta - Ciril Amorós,C FELIX  PIZCUETA 22 - VALÈNCIA,39.4660345167255,-0.372523143328533,,,0,
83,83,Eugènia Viñes - Platja Malva-rosa,C EUGENIA VIÑES 231 - VALÈNCIA,39.4725215289459,-0.325669314975459,,,0,
830,830,Russafa - Ciril Amorós,C RUZAFA 21 - VALÈNCIA,39.4657577844848,-0.374156152415542,,,0,
833,833,Vall de la Ballestera - Pius XII,C VALLE DE LA BALLESTERA 2ACC - VALÈNCIA,39.4811556391764,-0.393666812125818,,,0,
834,834,Hernàn Cortès - Ciril Amorós,C HERNAN CORTES 26 - VALÈNCIA,39.4670205760529,-0.370616877676407,,,0,
84,84,Platja Les Arenes,C EUGENIA VIÑES 183 - VALÈNCIA,39.4695961443541,-0.325700269458314,,,0,
849,849,Font d'en Corts (parell) - Mossén Palanca,C FUENTE EN CORTS 112 - VALÈNCIA,39.4444922724263,-0.357512038837446,,,0,
850,850,Font d'en Corts - Camí dels Rocs,C FUENTE EN CORTS 119 - VALÈNCIA,39.4440696175517,-0.357163847628923,,,0,
855,855,Orxata - Mestre Serrano,AV ORXATA   DE  L' 41 - ALBORAIA,39.49595060695,-0.354132662249013,,,0,
866,866,Catalunya - Santa Cruz de la Zarza,AV CATALUÑA 16 - VALÈNCIA,39.4789701362155,-0.353855488043501,,,0,
867,867,Clariano - Palància,C CLARIANO 25 - VALÈNCIA,39.4778456307967,-0.351592514912741,,,0,
868,868,Clariano - Albalat dels Tarongers,C CLARIANO 34 - VALÈNCIA,39.4778258649125,-0.3512715412448,,,0,
869,869,Amadeu de Savoia - Suècia,C AMADEO DE SABOYA 15 - VALÈNCIA,39.4730307481329,-0.359491509809862,,,0,
870,870,Misser Mascó - Dr. Rodríguez Fornós,C POETA MICER MASCO 35 - VALÈNCIA,39.4749406889242,-0.360332184022998,,,0,
871,871,Misser Mascó - Dr. Moliner,C POETA MICER MASCO 11 - VALÈNCIA,39.475549587218,-0.362503832418098,,,0,
872,872,Misser Mascó - Montfort,C POETA MICER MASCO 1 - VALÈNCIA,39.4765108896066,-0.365831458451459,,,0,
874,874,Finlàndia - General Gil Dolz,C FINLANDIA 2 ACC - VALÈNCIA,39.4727228708303,-0.360330864727921,,,0,
880,880,Pintor Salvador Abril - Maties Perelló,C PINTOR SALVADOR ABRIL 34 - VALÈNCIA,39.4617269948225,-0.369504833652186,,,0,
882,882,Fonteta Sant Lluís (parell) - Àngel Villena,CRA FUENTE DE SAN LUIS 134 - VALÈNCIA,39.4485060915138,-0.368622384217306,,,0,
886,886,Peris i Valero - Pintor Salvador Abril,AV PERIS Y VALERO 131 - VALÈNCIA,39.4604251583388,-0.367811721311141,,,0,
892,892,la Plata - Poeta Miguel Hernández,AV PLATA  DE  LA S/N - VALÈNCIA,39.4554623673651,-0.365723608968364,,,0,
9,9,Dr. Lluch - Vicent Gallart,C DOCTOR LLUCH 38 - VALÈNCIA,39.4656273147889,-0.328484017231366,,,0,
904,904,Glòria (parell) - Oliveral,C GLORIA 76 - CASTELLAR-OLIVERAL,39.4221333206001,-0.364322847727931,,,0,
906,906,Karl Marx - Guadalquivir,C CARLOS MARX S/N - FORN D'ALCEDO,39.4313064570539,-0.377148414375058,,,0,
907,907,Guadalquivir - Karl Marx,C GUADALQUIVIR S/N (KARL MARX) - FORN D'ALCEDO,39.4305199051716,-0.3770342946243,,,0,
910,910,Glòria (imparell) - Oliveral,C GLORIA 57 - CASTELLAR-OLIVERAL,39.4220980302879,-0.364172539005553,,,0,
911,911,Camí de les Vaques (imparell),CAMI VAQUES  DE LES 37 - CASTELLAR-OLIVERAL,39.4235499647595,-0.370426839565089,,,0,
912,912,Camí de les Vaques (parell),CAMI VAQUES  DE LES 68 - CASTELLAR-OLIVERAL,39.4234203185863,-0.370490966204032,,,0,
921,921,Carrera del Riu - Entrada Sanques,CRA RIU  DEL 172 - VALÈNCIA,39.4354391861408,-0.343624205860923,,,0,
922,922,Carrera del Riu - Camí dels Anouers,CRA RIU  DEL 228 - VALÈNCIA,39.4321055669415,-0.343169529033199,,,0,
923,923,Carrera del Riu (parell) - Canal,CRA RIU  DEL 264 - VALÈNCIA,39.4235262880061,-0.341102620562514,,,0,
924,924,Carrera del Riu - Trav. Pinedo a la Mar,CRA RIU  DEL 314 - VALÈNCIA,39.4216973481355,-0.340624944612177,,,0,
928,928,Carrera del Riu - Mossén Cuenca,CRA RIU  DEL 299 - VALÈNCIA,39.4216760915054,-0.340342003540918,,,0,
929,929,Carrera del Riu (imparell) - Canal,CRA RIU  DEL 267 - VALÈNCIA,39.4235646246302,-0.340901154018858,,,0,
930,930,el Tremolar - Camí Racó,CAMI TREMOLAR 163 - CASTELLAR-OLIVERAL,39.421431882753,-0.345024785737296,,,0,
931,931,el Tremolar - Guadiana,CAMI TREMOLAR 151 - CASTELLAR-OLIVERAL,39.422290240187,-0.350352697140778,,,0,
932,932,el Tremolar - Barraca de Troia,CAMI TREMOLAR 110 (DAVANT) - CASTELLAR-OLIVERAL,39.4227095150654,-0.356189111851601,,,0,
933,933,el Tremolar - Casa Rabot,CAMI TREMOLAR 63 - CASTELLAR-OLIVERAL,39.4234298937114,-0.359477558224319,,,0,
934,934,el Tremolar - Camí del Cavalló,CAMI TREMOLAR 23 (DAVANT) - CASTELLAR-OLIVERAL,39.4234981457555,-0.360994267859594,,,0,
935,935,el Tremolar - Cases Grill,CAMI TREMOLAR 54 - CASTELLAR-OLIVERAL,39.4232968005497,-0.359511019008228,,,0,
936,936,el Tremolar - Séquia de l'Or,CAMI TREMOLAR 100 - CASTELLAR-OLIVERAL,39.4226152964195,-0.356200804898249,,,0,
937,937,el Tremolar - Font d'en Corts,CAMI TREMOLAR 146 - CASTELLAR-OLIVERAL,39.4221738567365,-0.350451969779432,,,0,
938,938,el Tremolar - Camí del Bracet,CAMI TREMOLAR 163 (DAVANT) - CASTELLAR-OLIVERAL,39.4213184326065,-0.345044413486687,,,0,
939,939,Carrera del Riu - Entrada casa Rosquilla,CRA RIU  DEL 219 - VALÈNCIA,39.4321131753486,-0.342995147300379,,,0,
940,940,Carrera del Riu - Casa Andrés,CRA RIU  DEL 172 (DAVANT) - VALÈNCIA,39.4354576530985,-0.343478702614552,,,0,
948,948,Tavernes Blanques,AV CORTS VALENCIANES 62 - TAVERNES BLANQUES,39.5068784150979,-0.365494100350452,,,0,
949,949,Almàssera,CRA CASAS DE BARCENA 1 (DAVANT) - CASES DE BÀRCENA,39.5163726294149,-0.361358403671,,,0,
950,950,Cases de Bàrcena II,CRA CASAS DE BARCENA 66 - CASES DE BÀRCENA,39.5205617047081,-0.358622086218292,,,0,
951,951,Cases de Bàrcena III,CRA CASAS DE BARCENA 90 - CASES DE BÀRCENA,39.5223400531276,-0.357310656320045,,,0,
953,953,Cases de Bàrcena IV,CRA CASAS DE BARCENA 93 - CASES DE BÀRCENA,39.5220221607641,-0.357753342673335,,,0,
954,954,Cases de Bàrcena V,CRA CASAS DE BARCENA 61 - CASES DE BÀRCENA,39.5206136418337,-0.358762037214505,,,0,
955,955,Bonrepòs i Mirambell,CRA CASAS DE BARCENA 1 - CASES DE BÀRCENA,39.5164952184975,-0.361516993585083,,,0,
956,956,Tavernes Blanques,AV CORTS VALENCIANES 29 - TAVERNES BLANQUES,39.506380297205,-0.366243589349819,,,0,
958,958,Trànsits,AV DOCTOR PESET ALEIXANDRE 124 - VALÈNCIA,39.4893416647766,-0.386764470535596,,,0,
961,961,Jaime Beltrán - Misser Rabassa,C JAIME BELTRAN 13 - VALÈNCIA,39.4566050635078,-0.387952034259018,,,0,
965,965,Germans Villalonga - Enric Navarro,C HERMANOS VILLALONGA 29 - VALÈNCIA,39.485495202427,-0.357189308749901,,,0,
966,966,Vicent Zaragozà,C HERMANOS VILLALONGA 5 - VALÈNCIA,39.4840786873352,-0.357574085757802,,,0,
967,967,Ramón Asensio - Guàrdia Civil,C RAMON ASENSIO ILLETA - VALÈNCIA,39.4817743422531,-0.359174465742986,,,0,
972,972,Uruguai - Misser Rabassa,C URUGUAY 18 - VALÈNCIA,39.4569233580114,-0.387065272851172,,,0,
974,974,Carters - Llanera de Ranes,C CARTEROS 38 - VALÈNCIA,39.4527518883786,-0.388729082268363,,,0,
975,975,Carters - Calvo Acacio,C CARTEROS 62 - VALÈNCIA,39.4500762388329,-0.389301047256017,,,0,
976,976,Carters (imparell) - Primer de Maig,C CARTEROS 77 - VALÈNCIA,39.4483448686632,-0.389386209055839,,,0,
978,978,Carters (parell) - Primer de Maig,C CARTEROS 84 - VALÈNCIA,39.448267129841,-0.389686975551944,,,0,
979,979,Carters - Mossén Febrer,C CARTEROS 60 (DAVANT) - VALÈNCIA,39.4501712740076,-0.388974236055882,,,0,
983,983,Bailén,GV RAMON Y CAJAL 1 - VALÈNCIA,39.463088547663,-0.379623447957142,,,0,
985,985,Centre de Salut Benimaclet,C JAIME ESTEVE CUBELLS 6 - VALÈNCIA,39.4833216880192,-0.358503515024915,,,0,
987,987,Mistral - Murta,C MISTRAL 38 - VALÈNCIA,39.4858664494208,-0.357820593974662,,,0,
